"Long","Lat","S_No_","USIN","State","District","Block_Mand","Village","CCE_Date","Target_Cro","QC_Status","Wet_Weight","Dry_Weight","Yield_kg_h","Bara_Banki_max_GS","Bara_Banki_max_VS","Bara_Banki_min_GS","Bara_Banki_min_VS","Bara_Banki_rf_GS","Bara_Banki_rf_VS","barabanki_10_oct_250m_sm","Barabanki_14_aug_sm_250m","CCCI_Barabanki","CWSI_Barabanki","EVI_241_UP_Bara","EVI_273_UP_Bara","NDVI_241_UP_Bara","NDVI_273_UP_Bara"
81.474023,26.994398,311,57355,"UTTAR PRADESH","Barabanki","Sirauli Gauspur","Baraulia","2020/11/23","Paddy - IR","Accepted",3.295,2.9655,593.1,33.1060066223145,34.0212440490723,18.374174118042,26.0232486724854,0.0465409196913242,646.992614746094,0.317007392644882,0.169012933969498,0.451131194829941,0.294024646282196,0.453900009393692,0.472400009632111,0.652599990367889,0.739799976348877
81.492197,26.996382,321,57324,"UTTAR PRADESH","Barabanki","Sirauli Gauspur","Baraulia","2020/11/23","Paddy - IR","Accepted",4.225,3.8025,760.5,33.1054000854492,34.0102615356445,18.3795280456543,25.9976005554199,0.0536297522485256,675.755554199219,0.335225969552994,0.346460849046707,0.484939515590668,0.218545943498611,0.370200008153915,0.499199986457825,0.402099996805191,0.78329998254776
81.525676,27.015708,817,56142,"UTTAR PRADESH","Barabanki","Sirauli Gauspur","Shekh Pur Tutaru","2020/11/12","Paddy - IR","Accepted",10.92,9.828,1965.6,33.0918731689453,33.9844169616699,18.4140167236328,25.9742031097412,0.059306837618351,753.077575683594,0.321142017841339,0.331717491149902,0.498932182788849,0.174605906009674,0.336499989032745,0.480399996042252,0.454899996519089,0.752099990844727
81.492643,26.96225,851,56034,"UTTAR PRADESH","Barabanki","Sirauli Gauspur","Adra","2020/11/11","Paddy - IR","Accepted",12.21,10.989,2197.8,33.1254501342773,34.0234756469727,18.3367977142334,25.9719486236572,0.0599723160266876,635.01953125,0.302614510059357,0.34263214468956,0.475884526968002,0.098062090575695,0.53710001707077,0.513400018215179,0.855799973011017,0.82260000705719
81.493784,26.959868,855,56027,"UTTAR PRADESH","Barabanki","Sirauli Gauspur","Adra","2020/11/11","Paddy - IR","Accepted",11.39,10.251,2050.2,33.1321334838867,34.0278778076172,18.3225536346436,25.9633960723877,0.0620865002274513,621.440856933594,0.313038796186447,0.343759894371033,0.467579811811447,0.11064637452364,0.485199987888336,0.417100012302399,0.809099972248077,0.713299989700317
81.446522,27.086502,860,56018,"UTTAR PRADESH","Barabanki","Ramnagar","Madna","2020/11/06","Paddy - IR","Accepted",7.19,6.471,1294.2,33.0411491394043,34.0023155212402,18.5095653533936,26.1538944244385,0.0223384294658899,673.404846191406,0.322419434785843,0.32872810959816,0.483470916748047,0.458983778953552,0.25900000333786,0.395399987697601,0.563499987125397,0.66049998998642
81.435397,27.111503,861,56016,"UTTAR PRADESH","Barabanki","Ramnagar","loniyanpurawa","2020/11/06","Paddy - IR","Accepted",7.02,6.318,1263.6,33.0180358886719,33.9971351623535,18.5587577819824,26.2014980316162,0.0157265160232782,668.168518066406,0.320304870605469,0.34263214468956,0.466732829809189,0.455880224704742,0.158399999141693,0.347900003194809,0.432099997997284,0.633599996566772
81.436118,27.111158,862,56015,"UTTAR PRADESH","Barabanki","Ramnagar","chamarahi","2020/11/06","Paddy - IR","Accepted",8.07,7.263,1452.6,33.0180358886719,33.9971351623535,18.5587577819824,26.2014980316162,0.0157265160232782,668.168518066406,0.320304870605469,0.34263214468956,0.483201593160629,0.448909252882004,0.130899995565414,0.366100013256073,0.215900003910065,0.651600003242493
81.439255,27.110195,863,56014,"UTTAR PRADESH","Barabanki","Ramnagar","Manpur","2020/11/05","Paddy - IR","Accepted",10.05,9.045,1809,33.0180358886719,33.9971351623535,18.5587577819824,26.2014980316162,0.0157265160232782,668.168518066406,0.322274953126907,0.340885728597641,0.519589185714722,0.426421791315079,0.203999996185303,0.366100013256073,0.296099990606308,0.651600003242493
81.441868,27.12102,864,56013,"UTTAR PRADESH","Barabanki","Ramnagar","Dihuwa","2020/11/05","Paddy - IR","Accepted",5.56,5.004,1000.8,33.0119209289551,33.9865837097168,18.5733108520508,26.1948585510254,0.0163076557219028,704.318908691406,0.32440185546875,0.350942313671112,0.473956704139709,0.422674030065536,0.564999997615814,0.472799986600876,0.818199992179871,0.726199984550476
81.452297,27.104185,865,56010,"UTTAR PRADESH","Barabanki","Ramnagar","Lahalada","2020/11/11","Paddy - IR","Accepted",8.01,7.209,1441.8,33.0276031494141,33.987922668457,18.5403938293457,26.1578330993652,0.0215331744402647,716.113708496094,0.314543455839157,0.287985980510712,0.467522382736206,0.340958744287491,0.284000009298325,0.25900000333786,0.512199997901917,0.497000008821487
81.45434,27.107237,866,56009,"UTTAR PRADESH","Barabanki","Ramnagar","Ganeshpur","2020/11/05","Paddy - IR","Accepted",7.975,7.1775,1435.5,33.0276031494141,33.987922668457,18.5403938293457,26.1578330993652,0.0215331744402647,716.113708496094,0.331917226314545,0.157083436846733,0.442276418209076,0.365591198205948,0.14190000295639,0.402900010347366,0.281100004911423,0.662899971008301
81.441853,27.113477,867,56008,"UTTAR PRADESH","Barabanki","Ramnagar","Baranpur","2020/11/04","Paddy - IR","Accepted",7.995,7.1955,1439.1,33.019229888916,33.9905166625977,18.5573749542236,26.1846179962158,0.0178153496235609,696.590393066406,0.331342935562134,0.343199551105499,0.489509910345078,0.418250381946564,0.306499987840652,0.446399986743927,0.594399988651276,0.708299994468689
81.43548,27.117598,868,56007,"UTTAR PRADESH","Barabanki","Ramnagar","Gobaraha","2020/11/04","Paddy - IR","Accepted",7.315,6.5835,1316.7,33.0180358886719,33.9971351623535,18.5587577819824,26.2014980316162,0.0157265160232782,668.168518066406,0.315774023532867,0.291319638490677,0.454453110694885,0.460783839225769,0.386500000953674,0.354299992322922,0.676100015640259,0.657899975776672
81.379318,27.16506,869,56006,"UTTAR PRADESH","Barabanki","Ramnagar","Pipri Mahar","2020/11/04","Paddy - IR","Accepted",7.385,6.6465,1329.3,32.9699783325195,34.0204734802246,18.6585865020752,26.3658180236816,0.00619149813428521,480.714385986328,0.319520175457001,0.314468532800674,0.419565975666046,0.494830995798111,0.558200001716614,0.49210000038147,0.863099992275238,0.743099987506866
81.49946,26.960154,871,55995,"UTTAR PRADESH","Barabanki","Sirauli Gauspur","Adra","2020/11/11","Paddy - IR","Accepted",11.25,10.125,2025,33.1254501342773,34.0234756469727,18.3367977142334,25.9719486236572,0.0599723160266876,635.01953125,0.328151851892471,0.32872810959816,0.499599456787109,0.129586070775986,0.535899996757507,0.476900011301041,0.82889997959137,0.763499975204468
81.500995,26.95014,872,55991,"UTTAR PRADESH","Barabanki","Sirauli Gauspur","Chika Pur","2020/11/11","Paddy - IR","Accepted",11.68,10.512,2102.4,33.1313323974609,34.022762298584,18.3265838623047,25.95192527771,0.0661161094903946,631.142211914062,0.329736053943634,0.30665111541748,0.427492201328278,0.205294191837311,0.556599974632263,0.500100016593933,0.866299986839294,0.808899998664856
81.266155,26.957278,874,55987,"UTTAR PRADESH","Barabanki","Nawabganj","Naya Gaon","2020/11/11","Paddy - IR","Accepted",5.945,5.3505,1070.1,33.150562286377,34.1455307006836,18.2298412322998,26.2272510528564,0.786515831947327,431.847442626953,0.320479512214661,0.2988460958004,0.433708310127258,0.366884887218475,0.571600019931793,0.448199987411499,0.818899989128113,0.712400019168854
81.52178,26.932555,880,55980,"UTTAR PRADESH","Barabanki","Sirauli Gauspur","Udwat Nagar","2020/11/11","Paddy - IR","Accepted",10.84,9.756,1951.2,33.1423492431641,34.0219039916992,18.3081893920898,25.9139060974121,0.0791314989328384,616.367431640625,0.326035857200623,0.342057406902313,0.486419558525085,0.321479111909866,0.5314000248909,0.480399996042252,0.877900004386902,0.784900009632111
81.517272,26.938733,881,55979,"UTTAR PRADESH","Barabanki","Sirauli Gauspur","Udwat Nagar","2020/11/11","Paddy - IR","Accepted",11.62,10.458,2091.6,33.1434020996094,34.0268287658691,18.3034801483154,25.9247016906738,0.0748592913150787,609.006103515625,0.32455837726593,0.321225851774216,0.458783745765686,0.281853795051575,0.501200020313263,0.461600005626678,0.779500007629395,0.750800013542175
81.272697,26.956395,883,55977,"UTTAR PRADESH","Barabanki","Nawabganj","nayagaon","2020/11/11","Paddy - IR","Accepted",14.39,12.951,2590.2,33.1497611999512,34.1404151916504,18.2338714599609,26.2157783508301,0.716262698173523,438.499908447266,0.333327263593674,0.355859100818634,0.585817575454712,0.364925742149353,0.563099980354309,0.496100008487701,0.813000023365021,0.748000025749207
81.272845,26.959095,884,55973,"UTTAR PRADESH","Barabanki","Nawabganj","ð??ð??ð??ð??ð??ð??ð?ð??","2020/11/11","Paddy - IR","Accepted",14.94,13.446,2689.2,33.1497611999512,34.1404151916504,18.2338714599609,26.2157783508301,0.716262698173523,438.499908447266,0.324684083461761,0.335871666669846,0.482616692781448,0.355814635753632,0.329800009727478,0.476300001144409,0.664600014686584,0.724900007247925
81.528668,26.938638,886,55966,"UTTAR PRADESH","Barabanki","Sirauli Gauspur","vedikpurwa","2020/11/11","Paddy - IR","Accepted",8.14,7.326,1465.2,33.1423492431641,34.0219039916992,18.3081893920898,25.9139060974121,0.0791314989328384,616.367431640625,0.313858836889267,0.355434685945511,0.477334409952164,0.28216490149498,0.38620001077652,0.456400007009506,0.625999987125397,0.759999990463257
81.29467,26.973717,888,55962,"UTTAR PRADESH","Barabanki","Nawabganj","Bara Gaon","2020/11/11","Paddy - IR","Accepted",6.385,5.7465,1149.3,33.1298065185547,34.1251373291016,18.2839584350586,26.2234573364258,0.542060554027557,459.171447753906,0.316389083862305,-0.0529999993741512,0.456016004085541,0.352025359869003,0.200599998235703,0.455700010061264,0.445800006389618,0.738099992275238
81.528664,26.944931,889,55960,"UTTAR PRADESH","Barabanki","Sirauli Gauspur","Khempur","2020/11/11","Paddy - IR","Accepted",13.24,11.916,2383.2,33.1360397338867,34.0172157287598,18.3214168548584,25.921443939209,0.0766534134745598,633.456176757812,0.333999007940292,0.340885728597641,0.460596919059753,0.343769311904907,0.365799993276596,0.497000008821487,0.620800018310547,0.78659999370575
81.302595,26.981057,890,55957,"UTTAR PRADESH","Barabanki","Nawabganj","Badagaon","2020/11/11","Paddy - IR","Accepted",5.855,5.2695,1053.9,33.1202011108398,34.1172180175781,18.3079872131348,26.2262840270996,0.461030453443527,467.952850341797,0.311862945556641,0.348005950450897,0.466951876878738,0.375808447599411,0.453700006008148,0.377499997615814,0.718299984931946,0.688300013542175
81.52709,26.941939,891,55954,"UTTAR PRADESH","Barabanki","Sirauli Gauspur","vedik purwa","2020/11/11","Paddy - IR","Accepted",8.975,8.0775,1615.5,33.1360397338867,34.0172157287598,18.3214168548584,25.921443939209,0.0766534134745598,633.456176757812,0.329469680786133,0.357107818126678,0.454701811075211,0.298651129007339,0.392800003290176,0.350300014019012,0.574999988079071,0.643299996852875
81.313273,26.998783,894,55950,"UTTAR PRADESH","Barabanki","Ramnagar","Birauli","2020/11/11","Paddy - IR","Accepted",7.65,6.885,1377,33.1108474731445,34.1091079711914,18.3313369750977,26.2284336090088,0.384047716856003,475.697998046875,0.316973686218262,0.346460849046707,0.469531685113907,0.407108783721924,0.417699992656708,0.431300014257431,0.671500027179718,0.665899991989136
81.544759,27.00895,895,55949,"UTTAR PRADESH","Barabanki","Sirauli Gauspur","goshuwa pur","2020/11/11","Paddy - IR","Accepted",12.28,11.052,2210.4,33.0978240966797,33.9779319763184,18.4054660797119,25.9403419494629,0.068631149828434,767.091857910156,0.327051371335983,0.30665111541748,0.493445724248886,0.289172440767288,0.381500005722046,0.38060000538826,0.749899983406067,0.656599998474121
81.3347,27.013819,896,55944,"UTTAR PRADESH","Barabanki","Ramnagar","Dhabainpurva","2020/11/11","Paddy - IR","Accepted",6.395,5.7555,1151.1,33.0928840637207,34.0923271179199,18.3760089874268,26.2307052612305,0.24222420156002,488.079528808594,0.335533440113068,0.276565074920654,0.447696298360825,0.454706430435181,0.578400015830994,0.490799993276596,0.882200002670288,0.734399974346161
81.525518,27.013188,897,55943,"UTTAR PRADESH","Barabanki","Sirauli Gauspur","Shekh Pur Tutaru","2020/11/11","Paddy - IR","Accepted",9.27,8.343,1668.6,33.0918731689453,33.9844169616699,18.4140167236328,25.9742031097412,0.059306837618351,753.077575683594,0.328334122896194,0.355005890130997,0.459430783987045,0.191300556063652,0.234699994325638,0.459600001573563,0.327199995517731,0.73989999294281
81.329542,27.014614,898,55942,"UTTAR PRADESH","Barabanki","Ramnagar","Bindaura","2020/11/11","Paddy - IR","Accepted",11.23,10.107,2021.4,33.0929374694824,34.0980072021484,18.3740081787109,26.2442054748535,0.300335377454758,484.535827636719,0.329812943935394,0.341475397348404,0.472015649080276,0.435014575719833,0.533900022506714,0.383100003004074,0.854499995708466,0.578299999237061
81.522055,27.012297,899,55941,"UTTAR PRADESH","Barabanki","Sirauli Gauspur","Shekh Pur Tutaru","2020/11/11","Paddy - IR","Accepted",9.38,8.442,1688.4,33.0918731689453,33.9844169616699,18.4140167236328,25.9742031097412,0.059306837618351,753.077575683594,0.334187716245651,0.280638784170151,0.483810633420944,0.159404873847961,0.261000007390976,0.462300002574921,0.691200017929077,0.76690000295639
81.510438,27.005262,901,55939,"UTTAR PRADESH","Barabanki","Sirauli Gauspur","Sahnimau","2020/11/11","Paddy - IR","Accepted",7.72,6.948,1389.6,33.0983581542969,33.9946899414062,18.3984508514404,25.9798278808594,0.0583618022501469,720.437316894531,0.326521128416061,0.330246448516846,0.43975418806076,0.132104620337486,0.416000008583069,0.388999998569489,0.750800013542175,0.711199998855591
81.510021,27.010069,902,55938,"UTTAR PRADESH","Barabanki","Sirauli Gauspur","Sahnimau","2020/11/11","Paddy - IR","Accepted",10.73,9.657,1931.4,33.091926574707,33.9900970458984,18.4120178222656,25.9877033233643,0.0560050159692764,736.356018066406,0.330367267131805,0.324705421924591,0.484019041061401,0.132910713553429,0.303200006484985,0.458299994468689,0.38629999756813,0.76529997587204
81.511804,27.015148,903,55937,"UTTAR PRADESH","Barabanki","Sirauli Gauspur","Sahnimau","2020/11/11","Paddy - IR","Accepted",14.88,13.392,2678.4,33.091926574707,33.9900970458984,18.4120178222656,25.9877033233643,0.0560050159692764,736.356018066406,0.322456181049347,0.341475397348404,0.432824492454529,0.112194560468197,0.474500000476837,0.480199992656708,0.742200016975403,0.749400019645691
81.613872,26.892712,988,55801,"UTTAR PRADESH","Barabanki","Ramsanehighat","nurpur","2020/11/09","Paddy - IR","Accepted",13.7,12.33,2466,33.1536445617676,33.999683380127,18.3098278045654,25.7987651824951,0.131860449910164,572.143005371094,0.315102249383926,0.355005890130997,0.435069471597672,0.22229976952076,0.326200008392334,0.423500001430511,0.59469997882843,0.700399994850159
81.62618,26.88789,991,55795,"UTTAR PRADESH","Barabanki","Ramsanehighat","Ause Garh","2020/11/09","Paddy - IR","Accepted",13.61,12.249,2449.8,33.1571617126465,34.0007591247559,18.3060455322266,25.7851638793945,0.140308931469917,546.035095214844,0.319967031478882,0.267417639493942,0.458798050880432,0.189433246850967,0.378100007772446,0.436100006103516,0.70880001783371,0.726400017738342
81.628955,26.885447,992,55794,"UTTAR PRADESH","Barabanki","Ramsanehighat","madarpur","2020/11/09","Paddy - IR","Accepted",10.42,9.378,1875.6,33.1571617126465,34.0007591247559,18.3060455322266,25.7851638793945,0.140308931469917,546.035095214844,0.321779131889343,0.243272989988327,0.456769168376923,0.172883227467537,0.375200003385544,0.428999990224838,0.750199973583221,0.734499990940094
81.627884,26.881904,993,55793,"UTTAR PRADESH","Barabanki","Ramsanehighat","mabarpur","2020/11/09","Paddy - IR","Accepted",12.9,11.61,2322,33.1571617126465,34.0007591247559,18.3060455322266,25.7851638793945,0.140308931469917,546.035095214844,0.298769116401672,0.347496926784515,0.47099632024765,0.181236058473587,0.462599992752075,0.45440000295639,0.669900000095367,0.761099994182587
81.630714,26.882437,995,55791,"UTTAR PRADESH","Barabanki","Ramsanehighat","madar pur","2020/11/09","Paddy - IR","Accepted",12.24,11.016,2203.2,33.1554870605469,33.9962997436523,18.3124446868896,25.7760581970215,0.136970162391663,540.39501953125,0.300252288579941,0.333143830299377,0.463195264339447,0.180154025554657,0.385699987411499,0.397599995136261,0.551999986171722,0.683799982070923
81.639326,26.872016,997,55787,"UTTAR PRADESH","Barabanki","Ramsanehighat","khoday pur","2020/11/09","Paddy - IR","Accepted",10.59,9.531,1906.2,33.1604232788086,34.0020217895508,18.3029403686523,25.7722396850586,0.138239994645119,512.713684082031,0.32288059592247,0.313423335552216,0.492870956659317,0.212844341993332,0.38280001282692,0.443800002336502,0.694700002670288,0.728299975395203
81.638802,26.875215,999,55782,"UTTAR PRADESH","Barabanki","Ramsanehighat","khodaypur","2020/11/09","Paddy - IR","Accepted",14.9,13.41,2682,33.1604232788086,34.0020217895508,18.3029403686523,25.7722396850586,0.138239994645119,512.713684082031,0.320592164993286,0.339682877063751,0.454982578754425,0.211935147643089,0.383399993181229,0.396600008010864,0.735599994659424,0.686299979686737
81.242257,27.145912,1003,55757,"UTTAR PRADESH","Barabanki","Fatehpur","Isepur","2020/11/09","Paddy - IR","Accepted",6.74,6.066,1213.2,32.9670257568359,34.1124839782715,18.6535320281982,26.5658683776855,0.433286428451538,511.11767578125,0.328064173460007,0.34263214468956,0.472724288702011,0.6261066198349,0.331800013780594,0.428900003433228,0.346300005912781,0.593800008296967
81.610659,26.895312,1007,55753,"UTTAR PRADESH","Barabanki","Ramsanehighat","barethi","2020/11/09","Paddy - IR","Accepted",12.19,10.971,2194.2,33.1536445617676,33.999683380127,18.3098278045654,25.7987651824951,0.131860449910164,572.143005371094,0.315102249383926,0.267417639493942,0.422365576028824,0.21942201256752,0.525099992752075,0.384700000286102,0.817799985408783,0.681500017642975
81.614677,26.899345,1008,55752,"UTTAR PRADESH","Barabanki","Ramsanehighat","barethi","2020/11/09","Paddy - IR","Accepted",11.5,10.35,2070,33.1536445617676,33.999683380127,18.3098278045654,25.7987651824951,0.131860449910164,572.143005371094,0.331517904996872,0.343759894371033,0.4607994556427,0.258180230855942,0.452399998903275,0.480399996042252,0.748600006103516,0.764999985694885
81.249953,27.137548,1009,55751,"UTTAR PRADESH","Barabanki","Fatehpur","Ibrahimpur","2020/11/09","Paddy - IR","Accepted",7.16,6.444,1288.8,32.9767150878906,34.114574432373,18.6311283111572,26.5491409301758,0.450941234827042,518.158752441406,0.331890612840652,0.357920348644257,0.430579423904419,0.616809189319611,0.440100014209747,0.332800000905991,0.903199970722198,0.480500012636185
81.25464,27.137403,1011,55749,"UTTAR PRADESH","Barabanki","Fatehpur","Ibrahimpur","2020/11/09","Paddy - IR","Accepted",16.37,14.733,2946.6,32.9772071838379,34.1119918823242,18.6283988952637,26.5386714935303,0.416518747806549,516.228088378906,0.336120396852493,0.343199551105499,0.502214074134827,0.569403111934662,0.424100011587143,0.473600000143051,0.76010000705719,0.683000028133392
81.598592,26.89507,1012,55748,"UTTAR PRADESH","Barabanki","Ramsanehighat","Tarapur","2020/11/09","Paddy - IR","Accepted",12.17,10.953,2190.6,33.1567459106445,34.0087852478027,18.2977046966553,25.8176517486572,0.122345648705959,566.780639648438,0.265599489212036,0.318442583084106,0.46078634262085,0.2457095682621,0.369500011205673,0.45210000872612,0.664799988269806,0.762799978256226
81.255424,27.138647,1013,55747,"UTTAR PRADESH","Barabanki","Fatehpur","Ibrahimpur","2020/11/09","Paddy - IR","Accepted",11.77,10.593,2118.6,32.9772071838379,34.1119918823242,18.6283988952637,26.5386714935303,0.416518747806549,516.228088378906,0.321698188781738,0.351878941059113,0.48095566034317,0.556952595710754,0.529399991035461,0.462399989366531,0.754899978637695,0.735199987888336
81.259802,27.141283,1015,55744,"UTTAR PRADESH","Barabanki","Fatehpur","Raichandmau","2020/11/09","Paddy - IR","Accepted",11.59,10.431,2086.2,32.9675331115723,34.1098442077637,18.6507663726807,26.5553359985352,0.400292336940765,509.412109375,0.254415482282639,0.355434685945511,0.457427114248276,0.510601162910461,0.523699998855591,0.450899988412857,0.664900004863739,0.716099977493286
81.264567,27.143482,1016,55742,"UTTAR PRADESH","Barabanki","Fatehpur","Sarhemau","2020/11/09","Paddy - IR","Accepted",13.47,12.123,2424.6,32.9690971374512,34.1029434204102,18.6483669281006,26.5374412536621,0.367298245429993,507.706512451172,0.329264998435974,0.300230950117111,0.44712045788765,0.484258383512497,0.708999991416931,0.498400002717972,0.908699989318848,0.740899980068207
81.502318,26.953707,1017,55741,"UTTAR PRADESH","Barabanki","Sirauli Gauspur","Dhama Pur","2020/11/09","Paddy - IR","Accepted",11.36,10.224,2044.8,33.1313323974609,34.022762298584,18.3265838623047,25.95192527771,0.0661161094903946,631.142211914062,0.306124895811081,0.343199551105499,0.472754508256912,0.176701873540878,0.515600025653839,0.49439999461174,0.8439000248909,0.786099970340729
81.526711,27.004722,1019,55738,"UTTAR PRADESH","Barabanki","Sirauli Gauspur","Maraucha","2020/11/09","Paddy - IR","Accepted",10.11,9.099,1819.8,33.0981826782227,33.9891014099121,18.4007892608643,25.966667175293,0.0617849193513393,735.988830566406,0.331713765859604,0.343199551105499,0.492181986570358,0.16466324031353,0.374199986457825,0.356000006198883,0.737800002098083,0.669300019741058
81.570071,26.903912,1077,55643,"UTTAR PRADESH","Barabanki","Ramsanehighat","jataha","2020/11/08","Paddy - IR","Accepted",10.8,9.72,1944,33.1541557312012,34.0127334594727,18.297119140625,25.8423862457275,0.109746269881725,584.357177734375,0.303910344839096,0.267417639493942,0.50998443365097,0.216309636831284,0.341699987649918,0.404199987649918,0.644999980926514,0.718500018119812
81.57603,26.903258,1078,55640,"UTTAR PRADESH","Barabanki","Ramsanehighat","haribas pur","2020/11/08","Paddy - IR","Accepted",11.3,10.17,2034,33.1541557312012,34.0127334594727,18.297119140625,25.8423862457275,0.109746269881725,584.357177734375,0.289278924465179,0.326355338096619,0.471350282430649,0.212370380759239,0.360799998044968,0.429100006818771,0.842999994754791,0.809000015258789
81.603236,26.893322,1079,55639,"UTTAR PRADESH","Barabanki","Ramsanehighat","kyampur","2020/11/08","Paddy - IR","Accepted",14.27,12.843,2568.6,33.1551971435547,34.0042343139648,18.3037662506104,25.8082084655762,0.127103045582771,569.461791992188,0.323932886123657,0.354135394096375,0.456777781248093,0.221549794077873,0.499399989843369,0.428400009870529,0.837300002574921,0.711700022220612
81.609517,26.874237,1083,55634,"UTTAR PRADESH","Barabanki","Ramsanehighat","Imiliha","2020/11/08","Paddy - IR","Accepted",14.63,13.167,2633.4,33.1658210754395,34.0151100158691,18.2827243804932,25.7985420227051,0.133999988436699,516.563781738281,0.33295476436615,0.343199551105499,0.460518151521683,0.219813749194145,0.488499999046326,0.534500002861023,0.878899991512299,0.818400025367737
81.60913,26.878133,1084,55633,"UTTAR PRADESH","Barabanki","Ramsanehighat","Imiliha","2020/11/08","Paddy - IR","Accepted",14.27,12.843,2568.6,33.1658210754395,34.0151100158691,18.2827243804932,25.7985420227051,0.133999988436699,516.563781738281,0.328193336725235,0.349006742238998,0.382430881261826,0.237013205885887,0.475699990987778,0.511099994182587,0.818599998950958,0.790899991989136
81.603023,26.87825,1085,55631,"UTTAR PRADESH","Barabanki","Ramsanehighat","Malinpur","2020/11/08","Paddy - IR","Accepted",13.47,12.123,2424.6,33.1658210754395,34.0151100158691,18.2827243804932,25.7985420227051,0.133999988436699,516.563781738281,0.327364176511765,0.355005890130997,0.453479200601578,0.250306904315948,0.430200010538101,0.522300004959106,0.807500004768372,0.789200007915497
81.176313,27.209407,1086,55630,"UTTAR PRADESH","Barabanki","Fatehpur","Madanpur","2020/11/08","Paddy - IR","Accepted",4.19,3.771,754.2,32.9169578552246,34.0894088745117,18.7988719940186,26.6796894073486,0.498324513435364,471.358215332031,0.325112015008926,0.348509192466736,0.47720131278038,0.592528879642487,0.603799998760223,0.46900001168251,0.846400022506714,0.680800020694733
81.180375,27.206108,1090,55625,"UTTAR PRADESH","Barabanki","Fatehpur","Madanpur","2020/11/08","Paddy - IR","Accepted",7.07,6.363,1272.6,32.9158058166504,34.0909118652344,18.7973136901855,26.6777687072754,0.473900705575943,471.002960205078,0.333500057458878,0.355859100818634,0.466321140527725,0.585031032562256,0.712400019168854,0.332500010728836,0.878899991512299,0.481200009584427
81.188587,27.215305,1093,55621,"UTTAR PRADESH","Barabanki","Fatehpur","Karsabhari","2020/11/08","Paddy - IR","Accepted",12.15,10.935,2187,32.9067115783691,34.0889434814453,18.8181419372559,26.6932468414307,0.44767564535141,462.611572265625,0.33323872089386,0.357920348644257,0.46441575884819,0.481741487979889,0.673600018024445,0.498499989509583,0.916299998760223,0.756600022315979
81.19074,27.213935,1094,55620,"UTTAR PRADESH","Barabanki","Fatehpur","Achaichapurva","2020/11/08","Paddy - IR","Accepted",19.49,17.541,3508.2,32.9054641723633,34.0904273986816,18.8168449401855,26.6915340423584,0.424680203199387,462.481384277344,0.326461583375931,0.344313323497772,0.516827523708344,0.502156317234039,0.663500010967255,0.50330001115799,0.914699971675873,0.741599977016449
81.567271,26.899393,1097,55616,"UTTAR PRADESH","Barabanki","Ramsanehighat","Khubaka Purwa","2020/11/08","Paddy - IR","Accepted",12.1,10.89,2178,33.1613922119141,34.0224418640137,18.27952003479,25.845983505249,0.108073443174362,558.737060546875,0.331264108419418,0.295962065458298,0.494621425867081,0.206137776374817,0.459100008010864,0.495200008153915,0.827600002288818,0.797500014305115
81.565016,26.900945,1099,55611,"UTTAR PRADESH","Barabanki","Ramsanehighat","Khubaka Purwa","2020/11/08","Paddy - IR","Accepted",10.23,9.207,1841.4,33.1555824279785,34.0173797607422,18.2913951873779,25.8521690368652,0.105110161006451,580.505981445312,0.33386617898941,0.352795630693436,0.457704901695251,0.220386892557144,0.565500020980835,0.453700006008148,0.8682000041008,0.733299970626831
81.199943,27.189314,1101,55606,"UTTAR PRADESH","Barabanki","Fatehpur","chekaloriya","2020/11/08","Paddy - IR","Accepted",5.715,5.1435,1028.7,32.9330406188965,34.0963973999023,18.7535724639893,26.644474029541,0.499070227146149,486.980346679688,0.290707647800446,0.304177820682526,0.467000365257263,0.603110492229462,0.513400018215179,0.456400007009506,0.764900028705597,0.682099997997284
81.558805,26.904387,1104,55603,"UTTAR PRADESH","Barabanki","Ramsanehighat","Min Nagar","2020/11/08","Paddy - IR","Accepted",12.56,11.304,2260.8,33.1570053100586,34.0220222473145,18.2856731414795,25.8619499206543,0.100474059581757,576.654724121094,0.323012053966522,0.267417639493942,0.429678797721863,0.263248115777969,0.50110000371933,0.510900020599365,0.839399993419647,0.784300029277802
81.268916,27.150533,1105,55600,"UTTAR PRADESH","Barabanki","Fatehpur","Sarhemau","2020/11/08","Paddy - IR","Accepted",11.84,10.656,2131.2,32.9595489501953,34.100700378418,18.6703948974609,26.553768157959,0.352500230073929,501.115570068359,0.307827144861221,0.355005890130997,0.476041615009308,0.481628954410553,0.471799999475479,0.403400003910065,0.726899981498718,0.686600029468536
81.588726,26.900758,1112,55574,"UTTAR PRADESH","Barabanki","Ramsanehighat","Khatripur","2020/11/07","Paddy - IR","Accepted",10.2,9.18,1836,33.1527328491211,34.0080871582031,18.3028411865234,25.8326053619385,0.114382371306419,588.208374023438,0.29824885725975,0.330246448516846,0.476334124803543,0.259884744882584,0.450399994850159,0.457300007343292,0.763400018215179,0.74099999666214
81.581302,26.900537,1113,55572,"UTTAR PRADESH","Barabanki","Ramsanehighat","Khatripur","2020/11/07","Paddy - IR","Accepted",11.87,10.683,2136.6,33.1527328491211,34.0080871582031,18.3028411865234,25.8326053619385,0.114382371306419,588.208374023438,0.328780293464661,0.357920348644257,0.489698886871338,0.222283124923706,0.323500007390976,0.447899997234344,0.574199974536896,0.7257000207901
81.579871,26.904228,1114,55570,"UTTAR PRADESH","Barabanki","Ramsanehighat","Khatripur","2020/11/07","Paddy - IR","Accepted",11.7,10.53,2106,33.1541557312012,34.0127334594727,18.297119140625,25.8423862457275,0.109746269881725,584.357177734375,0.316971451044083,0.354572832584381,0.401992797851562,0.217778339982033,0.44760000705719,0.525200009346008,0.742900013923645,0.808200001716614
81.192173,27.201562,1120,55560,"UTTAR PRADESH","Barabanki","Fatehpur","Madarpur","2020/11/07","Paddy - IR","Accepted",7.9,7.11,1422,32.9146537780762,34.0924186706543,18.7957534790039,26.6758480072021,0.4494768679142,470.647705078125,0.322505801916122,0.355005890130997,0.446972191333771,0.550560832023621,0.507000029087067,0.445800006389618,0.802100002765656,0.633599996566772
81.568073,26.904975,1122,55557,"UTTAR PRADESH","Barabanki","Ramsanehighat","Jataha","2020/11/07","Paddy - IR","Accepted",13.1,11.79,2358,33.1555824279785,34.0173797607422,18.2913951873779,25.8521690368652,0.105110161006451,580.505981445312,0.32032835483551,0.344859957695007,0.502003788948059,0.236760437488556,0.308899998664856,0.423400014638901,0.581099987030029,0.70389997959137
81.194586,27.202686,1124,55555,"UTTAR PRADESH","Barabanki","Fatehpur","Madanpur","2020/11/07","Paddy - IR","Accepted",10.76,9.684,1936.8,32.9146537780762,34.0924186706543,18.7957534790039,26.6758480072021,0.4494768679142,470.647705078125,0.322505801916122,0.348509192466736,0.454452067613602,0.537829697132111,0.532100021839142,0.368499994277954,0.858699977397919,0.578499972820282
81.561203,26.90377,1125,55553,"UTTAR PRADESH","Barabanki","Ramsanehighat","Khubaka Purwa","2020/11/07","Paddy - IR","Accepted",9.24,8.316,1663.2,33.1555824279785,34.0173797607422,18.2913951873779,25.8521690368652,0.105110161006451,580.505981445312,0.319256067276001,0.349498748779297,0.495266020298004,0.249119117856026,0.345099985599518,0.489199995994568,0.650799989700317,0.794099986553192
81.447763,27.086053,1126,55550,"UTTAR PRADESH","Barabanki","Ramnagar","Jaggu Singh Purva","2020/11/07","Paddy - IR","Accepted",7.095,6.3855,1277.1,33.0411491394043,34.0023155212402,18.5095653533936,26.1538944244385,0.0223384294658899,673.404846191406,0.322615385055542,0.32872810959816,0.481058806180954,0.44891020655632,0.25900000333786,0.395399987697601,0.563499987125397,0.66049998998642
81.435347,27.11499,1127,55549,"UTTAR PRADESH","Barabanki","Ramnagar","helyain purva","2020/11/06","Paddy - IR","Accepted",7.02,6.318,1263.6,33.0180358886719,33.9971351623535,18.5587577819824,26.2014980316162,0.0157265160232782,668.168518066406,0.320304870605469,0.316495418548584,0.48767551779747,0.458931267261505,0.214900001883507,0.375699996948242,0.468300014734268,0.663500010967255
81.441565,27.110435,1128,55548,"UTTAR PRADESH","Barabanki","Ramnagar","moti purva","2020/11/05","Paddy - IR","Accepted",6.575,5.9175,1183.5,33.019229888916,33.9905166625977,18.5573749542236,26.1846179962158,0.0178153496235609,696.590393066406,0.326180100440979,0.221338227391243,0.496913552284241,0.415456652641296,0.239399999380112,0.39070001244545,0.466399997472763,0.663699984550476
81.43716,27.109488,1129,55547,"UTTAR PRADESH","Barabanki","Ramnagar","Lohati Pasai","2020/11/06","Paddy - IR","Accepted",6.81,6.129,1225.8,33.0254669189453,34.0009765625,18.5424842834473,26.19091796875,0.0171129126101732,661.610046386719,0.310903072357178,0.311265140771866,0.49434232711792,0.437287628650665,0.203999996185303,0.366100013256073,0.296099990606308,0.651600003242493
81.45151,27.104958,1130,55545,"UTTAR PRADESH","Barabanki","Ramnagar","Lohati Jai","2020/11/05","Paddy - IR","Accepted",8.1,7.29,1458,33.0276031494141,33.987922668457,18.5403938293457,26.1578330993652,0.0215331744402647,716.113708496094,0.32077094912529,0.287985980510712,0.475704282522202,0.352528512477875,0.358399987220764,0.441599994897842,0.608799993991852,0.70440000295639
81.441688,27.111285,1131,55544,"UTTAR PRADESH","Barabanki","Ramnagar","mitpur","2020/11/04","Paddy - IR","Accepted",4.965,4.4685,893.7,33.019229888916,33.9905166625977,18.5573749542236,26.1846179962158,0.0178153496235609,696.590393066406,0.331342935562134,0.295962065458298,0.446418166160583,0.416445165872574,0.219999998807907,0.39070001244545,0.45100000500679,0.663699984550476
81.194137,27.206381,1132,55542,"UTTAR PRADESH","Barabanki","Fatehpur","Madanpur","2020/11/07","Paddy - IR","Accepted",22.35,20.115,4023,32.9146537780762,34.0924186706543,18.7957534790039,26.6758480072021,0.4494768679142,470.647705078125,0.324703752994537,0.343759894371033,0.467198759317398,0.536622107028961,0.516300022602081,0.411300003528595,0.5867999792099,0.587499976158142
81.557035,26.903832,1133,55541,"UTTAR PRADESH","Barabanki","Ramsanehighat","Min Nagar","2020/11/07","Paddy - IR","Accepted",13.1,11.79,2358,33.1570053100586,34.0220222473145,18.2856731414795,25.8619499206543,0.100474059581757,576.654724121094,0.326894521713257,0.333143830299377,0.49646383523941,0.266272783279419,0.552100002765656,0.508700013160706,0.876699984073639,0.787899971008301
81.195656,27.205138,1134,55538,"UTTAR PRADESH","Barabanki","Fatehpur","Madanpur","2020/11/07","Paddy - IR","Accepted",11.15,10.035,2007,32.9146537780762,34.0924186706543,18.7957534790039,26.6758480072021,0.4494768679142,470.647705078125,0.323085099458694,0.330246448516846,0.474987775087357,0.533004879951477,0.474599987268448,0.359800010919571,0.77539998292923,0.56470000743866
81.549473,26.903266,1135,55537,"UTTAR PRADESH","Barabanki","Ramsanehighat","jalpapur","2020/11/07","Paddy - IR","Accepted",9.29,8.361,1672.2,33.1584320068359,34.026668548584,18.2799491882324,25.8717308044434,0.0958379581570625,572.803527832031,0.282753258943558,0.345933616161346,0.589435398578644,0.276874154806137,0.500199973583221,0.471300005912781,0.755400002002716,0.750899970531464
81.544318,26.905223,1136,55534,"UTTAR PRADESH","Barabanki","Ramsanehighat","jalapapur","2020/11/07","Paddy - IR","Accepted",13.45,12.105,2421,33.1584320068359,34.026668548584,18.2799491882324,25.8717308044434,0.0958379581570625,572.803527832031,0.320059061050415,0.345400035381317,0.483098298311234,0.289263904094696,0.517899990081787,0.481400012969971,0.849699974060059,0.765399992465973
81.202068,27.183108,1137,55533,"UTTAR PRADESH","Barabanki","Fatehpur","Mirdahanpurva","2020/11/07","Paddy - IR","Accepted",6.055,5.4495,1089.9,32.9320869445801,34.0979423522949,18.7514877319336,26.6421356201172,0.471789628267288,486.174987792969,0.322648763656616,0.330987721681595,0.457528054714203,0.63430118560791,0.797900021076202,0.446799993515015,0.817200005054474,0.640900015830994
81.542042,26.906065,1139,55530,"UTTAR PRADESH","Barabanki","Ramsanehighat","Jalalpur Tarai","2020/11/07","Paddy - IR","Accepted",13.68,12.312,2462.4,33.1584320068359,34.026668548584,18.2799491882324,25.8717308044434,0.0958379581570625,572.803527832031,0.322449862957001,0.346981912851334,0.49590077996254,0.295390963554382,0.484699994325638,0.417699992656708,0.773800015449524,0.68970000743866
81.200068,27.184977,1140,55529,"UTTAR PRADESH","Barabanki","Fatehpur","mirdahanpurva","2020/11/07","Paddy - IR","Accepted",8.395,7.5555,1511.1,32.9320869445801,34.0979423522949,18.7514877319336,26.6421356201172,0.471789628267288,486.174987792969,0.297625601291656,0.327950239181519,0.41063866019249,0.626441240310669,0.602100014686584,0.385600000619888,0.810199975967407,0.602299988269806
81.535308,26.927555,1141,55527,"UTTAR PRADESH","Barabanki","Sirauli Gauspur","Mallu Lalpur","2020/11/07","Paddy - IR","Accepted",12.95,11.655,2331,33.1474838256836,34.0217552185059,18.3000068664551,25.8959121704102,0.0860030874609947,605.469909667969,0.310561090707779,0.355005890130997,0.459562331438065,0.288000017404556,0.365700006484985,0.495599985122681,0.646000027656555,0.757700026035309
81.522224,27.007434,1143,55522,"UTTAR PRADESH","Barabanki","Sirauli Gauspur","sangramsinghpurwa","2020/11/07","Paddy - IR","Accepted",11.74,10.566,2113.2,33.0981826782227,33.9891014099121,18.4007892608643,25.966667175293,0.0617849193513393,735.988830566406,0.332335770130157,-0.0529999993741512,0.495694786310196,0.151920095086098,0.174700006842613,0.451599985361099,0.399699985980988,0.755699992179871
81.528587,27.014632,1157,55444,"UTTAR PRADESH","Barabanki","Sirauli Gauspur","nayapurwa","2020/11/06","Paddy - IR","Accepted",12.89,11.601,2320.2,33.0918731689453,33.9844169616699,18.4140167236328,25.9742031097412,0.059306837618351,753.077575683594,0.323471218347549,0.337816804647446,0.442788988351822,0.207873612642288,0.336499989032745,0.434300005435944,0.454899996519089,0.710900008678436
81.530577,27.011395,1159,55442,"UTTAR PRADESH","Barabanki","Sirauli Gauspur","Maraucha","2020/11/06","Paddy - IR","Accepted",13.28,11.952,2390.4,33.0918197631836,33.9787368774414,18.4160175323486,25.9607028961182,0.0626086518168449,769.799133300781,0.333348453044891,0.226365476846695,0.448558181524277,0.23392890393734,0.444099992513657,0.455099999904633,0.633000016212463,0.74889999628067
81.470906,26.98122,1169,55424,"UTTAR PRADESH","Barabanki","Sirauli Gauspur","Sirauli","2020/11/06","Paddy - IR","Accepted",13.23,11.907,2381.4,33.1129379272461,34.025463104248,18.3592529296875,26.0140228271484,0.0484125129878521,635.753967285156,0.335773229598999,0.357107818126678,0.476658046245575,0.237009957432747,0.643599987030029,0.523699998855591,0.888599991798401,0.774800002574921
81.23366,27.174977,1173,55419,"UTTAR PRADESH","Barabanki","Fatehpur","maidaspur","2020/11/06","Paddy - IR","Accepted",5.285,4.7565,951.3,32.9388160705566,34.1046485900879,18.7230930328369,26.6186008453369,0.409031063318253,491.024993896484,0.31584233045578,0.345400035381317,0.480244845151901,0.584944605827332,0.30579999089241,0.402999997138977,0.311599999666214,0.654600024223328
81.476742,26.98302,1174,55418,"UTTAR PRADESH","Barabanki","Sirauli Gauspur","Kasraila","2020/11/06","Paddy - IR","Accepted",8.6,7.74,1548,33.1129379272461,34.025463104248,18.3592529296875,26.0140228271484,0.0484125129878521,635.753967285156,0.321736663579941,0.350942313671112,0.491296410560608,0.206759691238403,0.724399983882904,0.540899991989136,0.65829998254776,0.793500006198883
81.230575,27.174039,1175,55417,"UTTAR PRADESH","Barabanki","Fatehpur","maidaspur","2020/11/06","Paddy - IR","Accepted",7.455,6.7095,1341.9,32.9388160705566,34.1046485900879,18.7230930328369,26.6186008453369,0.409031063318253,491.024993896484,0.31584233045578,0.315492331981659,0.467098146677017,0.54649555683136,0.669900000095367,0.44980001449585,0.600600004196167,0.690400004386902
81.225173,27.175273,1178,55412,"UTTAR PRADESH","Barabanki","Fatehpur","Ramnivaspurva","2020/11/06","Paddy - IR","Accepted",12.9,11.61,2322,32.9396705627441,34.1030807495117,18.7254390716553,26.6211490631104,0.43774002790451,492.055389404297,0.315250843763351,0.355005890130997,0.471266746520996,0.548026204109192,0.453599989414215,0.433999985456467,0.674399971961975,0.648400008678436
81.481642,26.974873,1179,55411,"UTTAR PRADESH","Barabanki","Sirauli Gauspur","Kasraila","2020/11/06","Paddy - IR","Accepted",12.15,10.935,2187,33.1193199157715,34.0243721008301,18.3476867675781,25.9926471710205,0.0540711134672165,636.556823730469,0.313825994729996,0.352339744567871,0.484675496816635,0.165829122066498,0.61379998922348,0.462099999189377,0.85259997844696,0.736999988555908
81.244448,27.178544,1183,55405,"UTTAR PRADESH","Barabanki","Fatehpur","mohammdipur","2020/11/06","Paddy - IR","Accepted",17.56,15.804,3160.8,32.9379615783691,34.1062126159668,18.7207450866699,26.6160545349121,0.380322098731995,489.994567871094,0.331145614385605,0.345400035381317,0.486497491598129,0.680657684803009,0.412200003862381,0.500500023365021,0.580399990081787,0.705999970436096
81.481263,26.982412,1184,55404,"UTTAR PRADESH","Barabanki","Sirauli Gauspur","Mohiuddinpur","2020/11/06","Paddy - IR","Accepted",12.91,11.619,2323.8,33.1125106811523,34.0200653076172,18.362268447876,26.0015354156494,0.0520782247185707,648.965454101562,0.299983024597168,0.339682877063751,0.467245757579803,0.193308770656586,0.557699978351593,0.545099973678589,0.818499982357025,0.788900017738342
81.479728,26.984327,1186,55402,"UTTAR PRADESH","Barabanki","Sirauli Gauspur","Baraulia","2020/11/06","Paddy - IR","Accepted",12.58,11.322,2264.4,33.1129379272461,34.025463104248,18.3592529296875,26.0140228271484,0.0484125129878521,635.753967285156,0.299983024597168,0.326355338096619,0.469237387180328,0.204584449529648,0.60589998960495,0.454899996519089,0.815299987792969,0.736699998378754
81.251322,27.151268,1189,55395,"UTTAR PRADESH","Barabanki","Fatehpur","Budhiyapur","2020/11/06","Paddy - IR","Accepted",20.46,18.414,3682.8,32.9578552246094,34.1076965332031,18.673131942749,26.57200050354,0.384065955877304,502.596099853516,0.318784892559052,0.356695622205734,0.469879686832428,0.635010540485382,0.397000014781952,0.393999993801117,0.479200005531311,0.545199990272522
81.462427,26.998085,1190,55393,"UTTAR PRADESH","Barabanki","Sirauli Gauspur","Khurdmau","2020/11/06","Paddy - IR","Accepted",9.415,8.4735,1694.7,33.1063079833984,34.0267372131348,18.3714962005615,26.0360736846924,0.0429965071380138,632.611083984375,0.317299515008926,0.355859100818634,0.564882934093475,0.375950068235397,0.313899993896484,0.355599999427795,0.596700012683868,0.584299981594086
81.251372,27.152879,1191,55392,"UTTAR PRADESH","Barabanki","Fatehpur","Budhiyapur","2020/11/06","Paddy - IR","Accepted",12.23,11.007,2201.4,32.9578552246094,34.1076965332031,18.673131942749,26.57200050354,0.384065955877304,502.596099853516,0.33405002951622,0.356279402971268,0.516662657260895,0.649595975875854,0.660899996757507,0.306199997663498,0.799799978733063,0.456900000572205
81.260053,27.147789,1192,55390,"UTTAR PRADESH","Barabanki","Fatehpur","Sarhemau","2020/11/06","Paddy - IR","Accepted",6.045,5.4405,1088.1,32.9690971374512,34.1029434204102,18.6483669281006,26.5374412536621,0.367298245429993,507.706512451172,0.3040372133255,0.336529225111008,0.505930781364441,0.515115976333618,0.256900012493134,0.505800008773804,0.379900008440018,0.758300006389618
81.494699,27.016034,1193,55389,"UTTAR PRADESH","Barabanki","Sirauli Gauspur","Kintoor","2020/11/06","Paddy - IR","Accepted",6.705,6.0345,1206.9,33.0920333862305,34.0014572143555,18.408016204834,26.0147037506104,0.0494013801217079,702.912963867188,0.333260864019394,0.179293304681778,0.507695019245148,0.312279760837555,0.216499999165535,0.449099987745285,0.556800007820129,0.726000010967255
81.266053,27.14653,1194,55387,"UTTAR PRADESH","Barabanki","Fatehpur","Sarhemau","2020/11/06","Paddy - IR","Accepted",6.825,6.1425,1228.5,32.9690971374512,34.1029434204102,18.6483669281006,26.5374412536621,0.367298245429993,507.706512451172,0.297768354415894,0.338447332382202,0.484387338161469,0.482396006584167,0.471799999475479,0.401800006628036,0.626399993896484,0.656499981880188
81.495109,27.013222,1195,55385,"UTTAR PRADESH","Barabanki","Sirauli Gauspur","Kintoor","2020/11/06","Paddy - IR","Accepted",13.11,11.799,2359.8,33.0920333862305,34.0014572143555,18.408016204834,26.0147037506104,0.0494013801217079,702.912963867188,0.336774051189423,0.324705421924591,0.461605876684189,0.312959522008896,0.129299998283386,0.453799992799759,0.221900001168251,0.722000002861023
81.268908,27.14374,1196,55384,"UTTAR PRADESH","Barabanki","Fatehpur","Ujarwara","2020/11/06","Paddy - IR","Accepted",13.58,12.222,2444.4,32.9690971374512,34.1029434204102,18.6483669281006,26.5374412536621,0.367298245429993,507.706512451172,0.290563017129898,0.344313323497772,0.427204966545105,0.488158524036407,0.490399986505508,0.435600012540817,0.802200019359589,0.699199974536896
81.531557,27.008407,1214,55354,"UTTAR PRADESH","Barabanki","Sirauli Gauspur","Maraucha","2020/11/05","Paddy - IR","Accepted",8.685,7.8165,1563.3,33.0980033874512,33.9835166931152,18.4031276702881,25.9535045623779,0.0652080327272415,751.540344238281,0.317190259695053,0.203470602631569,0.473475396633148,0.219415470957756,0.273999989032745,0.463800013065338,0.574599981307983,0.744000017642975
81.534844,26.997072,1215,55352,"UTTAR PRADESH","Barabanki","Sirauli Gauspur","Bibia Pur","2020/11/05","Paddy - IR","Accepted",7.55,6.795,1359,33.104190826416,33.9882965087891,18.3902378082275,25.9463043212891,0.0678074210882187,733.281555175781,0.310434937477112,0.355859100818634,0.482679605484009,0.20067010819912,0.287600010633469,0.407299995422363,0.563399970531464,0.689499974250793
81.524055,26.994903,1217,55348,"UTTAR PRADESH","Barabanki","Sirauli Gauspur","Maraucha","2020/11/05","Paddy - IR","Accepted",9.405,8.4645,1692.9,33.1044921875,33.9937896728516,18.3875598907471,25.9591293334961,0.0642630010843277,718.900024414062,0.333534359931946,0.196295633912086,0.4756019115448,0.105203166604042,0.421400010585785,0.36599999666214,0.725899994373322,0.654399991035461
81.243878,27.146047,1218,55347,"UTTAR PRADESH","Barabanki","Fatehpur","Isepur","2020/11/05","Paddy - IR","Accepted",12.36,11.124,2224.8,32.9670257568359,34.1124839782715,18.6535320281982,26.5658683776855,0.433286428451538,511.11767578125,0.318035840988159,0.356695622205734,0.469732880592346,0.649640321731567,0.107299998402596,0.317999988794327,0.100100003182888,0.448500007390976
81.523543,26.991365,1220,55345,"UTTAR PRADESH","Barabanki","Sirauli Gauspur","Ariya Mau","2020/11/05","Paddy - IR","Accepted",12.62,11.358,2271.6,33.1044921875,33.9937896728516,18.3875598907471,25.9591293334961,0.0642630010843277,718.900024414062,0.332245498895645,0.314468532800674,0.553977608680725,0.14698626101017,0.0701000019907951,0.446599990129471,0.112499997019768,0.772199988365173
81.242527,27.147361,1221,55344,"UTTAR PRADESH","Barabanki","Fatehpur","Isepur","2020/11/05","Paddy - IR","Accepted",5.535,4.9815,996.3,32.9670257568359,34.1124839782715,18.6535320281982,26.5658683776855,0.433286428451538,511.11767578125,0.318104386329651,0.354572832584381,0.486649721860886,0.622135877609253,0.331800013780594,0.428900003433228,0.346300005912781,0.593800008296967
81.244108,27.150029,1222,55343,"UTTAR PRADESH","Barabanki","Fatehpur","Dharauli","2020/11/05","Paddy - IR","Accepted",6.11,5.499,1099.8,32.9573364257812,34.1103935241699,18.6759376525879,26.5825977325439,0.415631651878357,504.076629638672,0.316321074962616,0.353693395853043,0.461368143558502,0.619219660758972,0.495299994945526,0.286300003528595,0.715399980545044,0.413500010967255
81.245466,27.154003,1227,55337,"UTTAR PRADESH","Barabanki","Fatehpur","Lalapur","2020/11/05","Paddy - IR","Accepted",15.62,14.058,2811.6,32.9573364257812,34.1103935241699,18.6759376525879,26.5825977325439,0.415631651878357,504.076629638672,0.331709176301956,0.358320862054825,0.431819945573807,0.585974156856537,0.468800008296967,0.305400013923645,0.590099990367889,0.435600012540817
81.503833,27.009753,1231,55331,"UTTAR PRADESH","Barabanki","Sirauli Gauspur","Amra Katehra","2020/11/05","Paddy - IR","Accepted",13.54,12.186,2437.2,33.0985374450684,34.0002746582031,18.396110534668,25.9929904937744,0.0549386851489544,704.885803222656,0.334221869707108,0.310150355100632,0.463664382696152,0.155878692865372,0.19539999961853,0.442200005054474,0.211600005626678,0.760800004005432
81.237967,27.165638,1236,55324,"UTTAR PRADESH","Barabanki","Fatehpur","Dausar","2020/11/05","Paddy - IR","Accepted",10.56,9.504,1900.8,32.9484062194824,34.1067161560059,18.7009506225586,26.6020812988281,0.428114205598831,498.291076660156,0.320538699626923,0.35046648979187,0.486403226852417,0.582170248031616,0.610000014305115,0.378500014543533,0.825399994850159,0.55620002746582
81.501945,27.005148,1237,55323,"UTTAR PRADESH","Barabanki","Sirauli Gauspur","Amra Katehra","2020/11/05","Paddy - IR","Accepted",12.24,11.016,2203.2,33.0985374450684,34.0002746582031,18.396110534668,25.9929904937744,0.0549386851489544,704.885803222656,0.328754186630249,0.30665111541748,0.491649776697159,0.146041452884674,0.448399990797043,0.417199999094009,0.606700003147125,0.721499979496002
81.2383,27.164572,1240,55319,"UTTAR PRADESH","Barabanki","Fatehpur","Dhausar","2020/11/05","Paddy - IR","Accepted",12.74,11.466,2293.2,32.9484062194824,34.1067161560059,18.7009506225586,26.6020812988281,0.428114205598831,498.291076660156,0.320538699626923,0.342057406902313,0.450912952423096,0.591409206390381,0.730799973011017,0.350699990987778,0.92220002412796,0.513800024986267
81.230446,27.162637,1242,55316,"UTTAR PRADESH","Barabanki","Fatehpur","Deokaliya","2020/11/05","Paddy - IR","Accepted",6.105,5.4945,1098.9,32.9484062194824,34.1067161560059,18.7009506225586,26.6020812988281,0.428114205598831,498.291076660156,0.328742653131485,0.2988460958004,0.400641411542892,0.559586942195892,0.963199973106384,0.318300008773804,0.812699973583221,0.465299993753433
81.520279,27.019777,1245,55312,"UTTAR PRADESH","Barabanki","Ramsanehighat","Kamiyar","2020/11/05","Paddy - IR","Accepted",13.08,11.772,2354.4,33.0918731689453,33.9844169616699,18.4140167236328,25.9742031097412,0.059306837618351,753.077575683594,0.337683826684952,0.259462684392929,0.476179122924805,0.12346313893795,0.454499989748001,0.486099988222122,0.660600006580353,0.753700017929077
81.308959,27.200489,1247,55306,"UTTAR PRADESH","Barabanki","Fatehpur","Karanpur","2020/11/05","Paddy - IR","Accepted",14.8,13.32,2664,32.9210548400879,34.0596313476562,18.7628135681152,26.5557060241699,0.180814832448959,466.739898681641,0.322588920593262,0.317478597164154,0.477706491947174,0.665077924728394,0.372900009155273,0.248199999332428,0.54449999332428,0.36829999089241
81.356279,27.229007,1259,55289,"UTTAR PRADESH","Barabanki","Ramnagar","masuriha","2020/11/04","Paddy - IR","Accepted",5.925,5.3325,1066.5,32.915771484375,34.0161285400391,18.7786293029785,26.4826602935791,0.054810494184494,455.832733154297,0.333250790834427,0.311265140771866,0.429057151079178,0.436359733343124,0.235799998044968,0.400099992752075,0.641700029373169,0.568599998950958
81.557919,26.900079,1261,55287,"UTTAR PRADESH","Barabanki","Ramsanehighat","Dariyabad","2020/11/04","Paddy - IR","Accepted",13.39,12.051,2410.2,33.1570053100586,34.0220222473145,18.2856731414795,25.8619499206543,0.100474059581757,576.654724121094,0.316644281148911,0.329493403434753,0.406528294086456,0.24512492120266,0.450100004673004,0.370900005102158,0.754800021648407,0.65530002117157
81.558917,26.899641,1262,55286,"UTTAR PRADESH","Barabanki","Ramsanehighat","Dariyabad","2020/11/04","Paddy - IR","Accepted",14.7,13.23,2646,33.1629409790039,34.0269927978516,18.273458480835,25.8554267883301,0.10331603884697,556.055908203125,0.316644281148911,0.329493403434753,0.48916620016098,0.238245904445648,0.516200006008148,0.485300004482269,0.836899995803833,0.76230001449585
81.539707,26.889207,1266,55281,"UTTAR PRADESH","Barabanki","Ramsanehighat","Saraya Chamaran","2020/11/04","Paddy - IR","Accepted",12.85,11.565,2313,33.1722259521484,34.0408744812012,18.2484455108643,25.867115020752,0.096400611102581,532.434692382812,0.335735768079758,0.357107818126678,0.473328053951263,0.255411028862,0.432500004768372,0.564999997615814,0.554700016975403,0.818099975585938
81.54169,26.887539,1268,55279,"UTTAR PRADESH","Barabanki","Ramsanehighat","Dariyabad","2020/11/04","Paddy - IR","Accepted",11.69,10.521,2104.2,33.1705513000488,34.0364151000977,18.254846572876,25.8580093383789,0.101279318332672,533.945861816406,0.337843745946884,0.355859100818634,0.458406418561935,0.259207963943481,0.432500004768372,0.564999997615814,0.554700016975403,0.818099975585938
81.541998,26.891932,1270,55275,"UTTAR PRADESH","Barabanki","Ramsanehighat","Saraya Chamaran","2020/11/04","Paddy - IR","Accepted",11.45,10.305,2061,33.1644897460938,34.0315437316895,18.2673969268799,25.8648700714111,0.098558634519577,553.374694824219,0.33342656493187,0.355859100818634,0.48387810587883,0.23906546831131,0.368499994277954,0.535799980163574,0.681599974632263,0.801500022411346
81.5429,26.892908,1273,55271,"UTTAR PRADESH","Barabanki","Ramsanehighat","Saraya Chamaran","2020/11/04","Paddy - IR","Accepted",11.82,10.638,2127.6,33.1644897460938,34.0315437316895,18.2673969268799,25.8648700714111,0.098558634519577,553.374694824219,0.332428216934204,0.355859100818634,0.409552395343781,0.237293988466263,0.368499994277954,0.535799980163574,0.681599974632263,0.801500022411346
81.337767,27.21228,1274,55270,"UTTAR PRADESH","Barabanki","Ramnagar","Suratganj","2020/11/04","Paddy - IR","Accepted",7.68,6.912,1382.4,32.9193229675293,34.0343360900879,18.7691841125488,26.5098972320557,0.102743990719318,460.658569335938,0.32737785577774,0.353246837854385,0.425925940275192,0.601863145828247,0.533800005912781,0.359600007534027,0.673399984836578,0.551100015640259
81.537844,26.896247,1276,55266,"UTTAR PRADESH","Barabanki","Ramsanehighat","Saraya Chamaran","2020/11/04","Paddy - IR","Accepted",11.5,10.35,2070,33.1660385131836,34.0360946655273,18.2613353729248,25.8743152618408,0.0938012301921844,550.693542480469,0.333326518535614,0.353246837854385,0.442071050405502,0.200568661093712,0.601499974727631,0.51529997587204,0.880200028419495,0.797399997711182
81.539505,26.896071,1277,55262,"UTTAR PRADESH","Barabanki","Ramsanehighat","Saraya Chamaran","2020/11/04","Paddy - IR","Accepted",12.29,11.061,2212.2,33.1660385131836,34.0360946655273,18.2613353729248,25.8743152618408,0.0938012301921844,550.693542480469,0.33160075545311,0.341475397348404,0.52901965379715,0.208654001355171,0.601499974727631,0.51529997587204,0.880200028419495,0.797399997711182
81.54429,26.896403,1279,55254,"UTTAR PRADESH","Barabanki","Ramsanehighat","saraiya","2020/11/04","Paddy - IR","Accepted",11.14,10.026,2005.2,33.1644897460938,34.0315437316895,18.2673969268799,25.8648700714111,0.098558634519577,553.374694824219,0.332428216934204,0.349498748779297,0.479321181774139,0.239366546273232,0.540899991989136,0.510500013828278,0.813899993896484,0.782700002193451
81.329337,27.169717,1284,55245,"UTTAR PRADESH","Barabanki","Ramnagar","Mohsandi","2020/11/04","Paddy - IR","Accepted",5.84,5.256,1051.2,32.9608955383301,34.0559234619141,18.6739654541016,26.4586696624756,0.156878188252449,486.991790771484,0.338293820619583,0.349985271692276,0.488220512866974,0.569884061813354,0.625500023365021,0.522300004959106,0.832300007343292,0.745899975299835
81.519825,26.936665,1285,55244,"UTTAR PRADESH","Barabanki","Sirauli Gauspur","Udwat Nagar","2020/11/04","Paddy - IR","Accepted",14.74,13.266,2653.2,33.1434020996094,34.0268287658691,18.3034801483154,25.9247016906738,0.0748592913150787,609.006103515625,0.331743121147156,0.32872810959816,0.468009918928146,0.293311476707458,0.468400001525879,0.429300010204315,0.816600024700165,0.734600007534027
81.36121,27.15839,1286,55242,"UTTAR PRADESH","Barabanki","ramnagar","kutlupur","2020/11/04","Paddy - IR","Accepted",5.9,5.31,1062,32.9764671325684,34.0307464599609,18.6430187225342,26.3714427947998,0.0368430688977242,486.310241699219,0.320404559373856,0.286239266395569,0.544520080089569,0.542076885700226,0.432799994945526,0.472400009632111,0.587100028991699,0.717599987983704
81.358705,27.155088,1288,55239,"UTTAR PRADESH","Barabanki","Ramnagar","Hathoya","2020/11/04","Paddy - IR","Accepted",11.29,10.161,2032.2,32.9747734069824,34.0377426147461,18.6457557678223,26.3896751403809,0.0684087872505188,487.790771484375,0.318952262401581,0.348509192466736,0.497800052165985,0.529468894004822,0.36599999666214,0.371100008487701,0.541700005531311,0.553399980068207
81.522473,27.021017,1289,55238,"UTTAR PRADESH","Barabanki","Sirauli Gauspur","Shekh Pur Tutaru","2020/11/04","Paddy - IR","Accepted",16.2,14.58,2916,33.085563659668,33.9797325134277,18.42724609375,25.9817409515381,0.0568287521600723,770.166381835938,0.32960969209671,0.345933616161346,0.482295006513596,0.128564283251762,0.447299987077713,0.45100000500679,0.57039999961853,0.714299976825714
81.306908,27.102793,1309,55216,"UTTAR PRADESH","Barabanki","Ramnagar","Sardarganj","2020/11/03","Paddy - IR","Accepted",12.95,11.655,2331,33.0115776062012,34.085807800293,18.5560741424561,26.405969619751,0.283139407634735,505.935180664062,0.331041932106018,0.287985980510712,0.463537812232971,0.811261713504791,0.791299998760223,0.451700001955032,0.781599998474121,0.660099983215332
81.53517,26.98587,1310,55215,"UTTAR PRADESH","Barabanki","Sirauli Gauspur","Jadwa Pur","2020/11/03","Paddy - IR","Accepted",12.39,11.151,2230.2,33.1103744506836,33.9930763244629,18.377347946167,25.9391059875488,0.0704068019986153,715.022766113281,0.33141627907753,0.351878941059113,0.475876301527023,0.24654920399189,0.224500000476837,0.364399999380112,0.444000005722046,0.676900029182434
81.534922,26.987132,1314,55211,"UTTAR PRADESH","Barabanki","Sirauli Gauspur","Jadwa Pur","2020/11/03","Paddy - IR","Accepted",12.67,11.403,2280.6,33.1103744506836,33.9930763244629,18.377347946167,25.9391059875488,0.0704068019986153,715.022766113281,0.33141627907753,0.188299983739853,0.491456478834152,0.232208505272865,0.224500000476837,0.364399999380112,0.444000005722046,0.676900029182434
81.28688,27.138463,1315,55210,"UTTAR PRADESH","Barabanki","Ramnagar","Allapur Ranimau","2020/11/03","Paddy - IR","Accepted",10.99,9.891,1978.2,32.9815330505371,34.0915679931641,18.6222171783447,26.4860019683838,0.313251316547394,510.436157226562,0.333958029747009,0.342057406902313,0.467182487249374,0.542763233184814,0.508800029754639,0.47409999370575,0.589200019836426,0.722699999809265
81.534205,26.986692,1316,55209,"UTTAR PRADESH","Barabanki","Sirauli Gauspur","Jadwa Pur","2020/11/03","Paddy - IR","Accepted",12.23,11.007,2201.4,33.1103744506836,33.9930763244629,18.377347946167,25.9391059875488,0.0704068019986153,715.022766113281,0.33141627907753,0.314468532800674,0.460177183151245,0.232955783605576,0.224500000476837,0.364399999380112,0.444000005722046,0.676900029182434
81.533015,26.986698,1318,55207,"UTTAR PRADESH","Barabanki","Sirauli Gauspur","Jadwa Pur","2020/11/03","Paddy - IR","Accepted",12.1,10.89,2178,33.1103744506836,33.9930763244629,18.377347946167,25.9391059875488,0.0704068019986153,715.022766113281,0.33141627907753,0.314468532800674,0.452577829360962,0.227952927350998,0.326499998569489,0.364399999380112,0.507600009441376,0.676900029182434
81.278462,27.143888,1320,55204,"UTTAR PRADESH","Barabanki","Fatehpur","Ujarwara","2020/11/03","Paddy - IR","Accepted",5.95,5.355,1071,32.9706649780273,34.0960426330566,18.6459674835205,26.5195465087891,0.33430415391922,506.000915527344,0.324060410261154,0.349006742238998,0.428535163402557,0.551673293113708,0.771499991416931,0.509400010108948,0.896399974822998,0.746599972248077
81.531806,26.985057,1321,55203,"UTTAR PRADESH","Barabanki","Sirauli Gauspur","Jadwa Pur","2020/11/03","Paddy - IR","Accepted",12.45,11.205,2241,33.1103744506836,33.9930763244629,18.377347946167,25.9391059875488,0.0704068019986153,715.022766113281,0.331535249948502,0.35046648979187,0.475335747003555,0.245275765657425,0.326499998569489,0.510299980640411,0.507600009441376,0.779299974441528
81.329319,27.11699,1325,55198,"UTTAR PRADESH","Barabanki","Ramnagar","Saray Gaura","2020/11/03","Paddy - IR","Accepted",5.335,4.8015,960.3,33.0049095153809,34.0699501037598,18.5739803314209,26.3871822357178,0.192566111683846,505.825225830078,0.321516215801239,0.357107818126678,0.483944773674011,0.725472331047058,0.318300008773804,0.414700001478195,0.451700001955032,0.643499970436096
81.502703,27.022258,1327,55195,"UTTAR PRADESH","Barabanki","Sirauli Gauspur","Dhakhwamafi","2020/11/03","Paddy - IR","Accepted",8.1,7.29,1458,33.0854187011719,33.9912796020508,18.423921585083,26.0094165802002,0.0504677146673203,734.383178710938,0.332662642002106,0.338447332382202,0.463953852653503,0.195820406079292,0.319499999284744,0.412099987268448,0.49770000576973,0.665199995040894
81.508605,27.018088,1329,55192,"UTTAR PRADESH","Barabanki","Sirauli Gauspur","Dhakhwamafi","2020/11/03","Paddy - IR","Accepted",17.15,15.435,3087,33.0919799804688,33.995777130127,18.4100170135498,26.0012035369873,0.0527031980454922,719.634460449219,0.339674383401871,0.348005950450897,0.434512436389923,0.136585995554924,0.482600003480911,0.478899985551834,0.745500028133392,0.749400019645691
81.400028,27.186804,1330,55191,"UTTAR PRADESH","Barabanki","Ramnagar","Ibrahimpur","2020/11/03","Paddy - IR","Accepted",14.2,12.78,2556,32.9598159790039,33.9920921325684,18.6839370727539,26.3332939147949,0.0118305906653404,548.630065917969,0.328638941049576,0.333143830299377,0.489580810070038,0.446641683578491,0.296600013971329,0.406800001859665,0.559300005435944,0.632200002670288
81.524566,26.985,1332,55180,"UTTAR PRADESH","Barabanki","Sirauli Gauspur","Ariya Mau","2020/11/02","Paddy - IR","Accepted",7.93,7.137,1427.4,33.1108016967773,33.9984741210938,18.3743324279785,25.9515914916992,0.0667410865426064,701.811279296875,0.337851166725159,0.355434685945511,0.473818898200989,0.238026797771454,0.439000010490417,0.437799990177155,0.59850001335144,0.703700006008148
81.527729,26.990928,1333,55179,"UTTAR PRADESH","Barabanki","Sirauli Gauspur","Ariya Mau","2020/11/02","Paddy - IR","Accepted",13.11,11.799,2359.8,33.1044921875,33.9937896728516,18.3875598907471,25.9591293334961,0.0642630010843277,718.900024414062,0.335006564855576,0.343199551105499,0.478256970643997,0.162133693695068,0.106600001454353,0.3682000041008,0.105499997735023,0.692700028419495
81.525127,26.990707,1334,55178,"UTTAR PRADESH","Barabanki","Sirauli Gauspur","Ariya Mau","2020/11/02","Paddy - IR","Accepted",14,12.6,2520,33.1044921875,33.9937896728516,18.3875598907471,25.9591293334961,0.0642630010843277,718.900024414062,0.338856220245361,0.341475397348404,0.460559278726578,0.159278050065041,0.107199996709824,0.441399991512299,0.112499997019768,0.757200002670288
81.398907,27.18773,1335,55177,"UTTAR PRADESH","Barabanki","Ramnagar","Ibrahimpur","2020/11/02","Paddy - IR","Accepted",1.275,1.1475,229.5,32.9577522277832,33.9993667602539,18.6876907348633,26.3525390625,0.010560323484242,523.247924804688,0.326766461133957,0.305429339408875,0.490583896636963,0.452683299779892,0.360300004482269,0.399800002574921,0.514100015163422,0.641499996185303
81.525599,26.991339,1336,55175,"UTTAR PRADESH","Barabanki","Sirauli Gauspur","Ariya Mau","2020/11/02","Paddy - IR","Accepted",12.2,10.98,2196,33.1044921875,33.9937896728516,18.3875598907471,25.9591293334961,0.0642630010843277,718.900024414062,0.338856220245361,0.35141310095787,0.472878813743591,0.153003826737404,0.107199996709824,0.441399991512299,0.112499997019768,0.757200002670288
81.394373,27.189538,1338,55173,"UTTAR PRADESH","Barabanki","Ramnagar","Ibrahimpur","2020/11/02","Paddy - IR","Accepted",5.12,4.608,921.6,32.9577522277832,33.9993667602539,18.6876907348633,26.3525390625,0.010560323484242,523.247924804688,0.328175067901611,0.317478597164154,0.417155474424362,0.467892020940781,0.414799988269806,0.424699991941452,0.615700006484985,0.656300008296967
