USIN,State,District,Block_Mand,Gram_Panch,Village,CE_GP_Code,CE_G_P,CCE_Date,Lat,Long,Target_Cro,State_1,District_1,Sub_Distri,Village_1,UID,Remark,Yield_kg_h,CCCI_Shajanpur_30,CWSI_Shajanpur_30,EVI_sen2_shajanpur_20210215_gcs_30,NDVI_sen2_shajanpur_20210215_gcs_30,Shajapur_01_Jan_Soil_moisture1,Shajapur_2_march_Soil_Moisture,UP_Shahjahanpur_min_GS,UP_Shahjahanpur_min_VS,UP_Shahjahanpur_rf_GS,UP_Shahjahanpur_rf_VS,UP_Shajahapur_max_GS,UP_Shajahapur_max_VS
63479,UTTAR PRADESH,Shahjahanpur,Jalalabad,kirtapur kumharia,Kirtapur T. Kumharia,87459,BAGDER,4/16/2021,27.69009612,79.66693901,Wheat-Irri,Uttar Pradesh,Shahjahanpur,Jalalabad,Kirtapur T. Kumharia,UP_VILL_642096,GP_Available,2082.617891,0.547323585,0.096497729,0.757393837,0.604308069,0.337486714,0.27897048,14.8833704,8.434808731,15.56977272,6.706865788,30.89110756,21.90530586
63478,UTTAR PRADESH,Shahjahanpur,Jalalabad,guragawan,Etmadpur T. Gurgawan,87083,GURGAVA,4/16/2021,27.69640547,79.68148367,Wheat-Irri,Uttar Pradesh,Shahjahanpur,Jalalabad,Gurgawan,UP_VILL_642097,GP_Available,2338.26859,0.585372627,0.108242273,0.714998662,0.585120559,0.359711081,0.28982693,14.88988113,8.455096245,14.99674511,6.075641155,30.8803463,21.89800835
63471,UTTAR PRADESH,Shahjahanpur,Jalalabad,gularia,Gularia,242399,MUDIYA NAGLA NATH,4/16/2021,27.70043782,79.69505589,Wheat-Irri,Uttar Pradesh,Shahjahanpur,Jalalabad,Sarkhanda,UP_VILL_642100,GP_Available,1955.831772,0.581126571,0.15133515,0.629935324,0.534198105,0.348340601,0.297708005,14.88324451,8.45406723,14.17091942,5.898704529,30.87323952,21.87326622
63313,UTTAR PRADESH,Shahjahanpur,Shahjahanpur,jamaur,Jamaur,86978,JAMAUR,4/15/2021,27.83849133,79.85470159,Wheat-Irri,Uttar Pradesh,Shahjahanpur,Shahjahanpur,Jamaur,UP_VILL_643643,GP_Available,2084.696352,0.594965458,0.431659549,0.320111394,0.316271067,0.347990453,0.330729812,14.87621021,8.489768028,2.698981762,1.03528738,30.8151741,21.80187988
63217,UTTAR PRADESH,Shahjahanpur,Tilhar,Tilhar,Kaswa Tilhar (Chungi),242757,SHIVDAS PUR,4/14/2021,27.95352604,79.75857146,Wheat-Irri,Uttar Pradesh,Shahjahanpur,Tilhar,Kaswa Tilhar (Chungi),UP_VILL_643665,GP_Available,1964.145616,0.539843917,0.289926082,0.317304999,0.305482537,0.325244069,0.339862406,14.84161568,8.456382751,3.427695036,6.930996418,30.728405,21.75318527
63405,UTTAR PRADESH,Shahjahanpur,Powayan,bhaypur,Bhaipur,87507,RAKHIYA BUZURG,4/15/2021,28.00921083,79.94524091,Wheat-Irri,Uttar Pradesh,Shahjahanpur,Powayan,Fattepur J. Murha,UP_VILL_645719,GP_Available,2028.577906,0.516783893,0.483898729,0.267194122,0.291477948,0.337269902,0.346262246,14.93514919,8.546870232,2.606178999,4.559079647,30.74196815,21.78915024
63403,UTTAR PRADESH,Shahjahanpur,Powayan,Raipur,Gargaiya,242752,KAIMRIYA MATLOOKPUR,04-15-2021,28.01947451,79.95266198,Wheat-Irri,Uttar Pradesh,Shahjahanpur,Powayan,Bhaipur,UP_VILL_645720,GP_Available,2893.217669,0.576108038,0.285116553,0.318442911,0.3083691,0.333423644,0.284264654,14.94237041,8.553510666,2.665353298,4.666260242,30.73928833,21.78841782
63272,UTTAR PRADESH,Shahjahanpur,Powayan,bhadheri bhekh,Baderi Bheekh,87480,IMALIA HAMIDNAGAR,04-14-2021,28.00693718,79.90550582,Wheat-Irri,Uttar Pradesh,Shahjahanpur,Powayan,Imalia Hamidnagar,UP_VILL_645723,GP_Available,2159.520947,0.53305763,0.336615145,0.545687199,0.487337142,0.319692343,0.261768937,14.9148407,8.527604103,3.091133595,5.349020004,30.73272514,21.78064156
63271,UTTAR PRADESH,Shahjahanpur,Powayan,imliya hamidnagar,Imalia Hamidnagar,87480,IMALIA HAMIDNAGAR,04-14-2021,28.00049561,79.90494945,Wheat-Irri,Uttar Pradesh,Shahjahanpur,Powayan,Imalia Hamidnagar,UP_VILL_645723,GP_Available,2529.486999,0.513174534,0.349822551,0.424753249,0.411678463,0.329789877,0.268067211,14.9148407,8.527604103,3.091133595,5.349020004,30.73272514,21.78064156
63406,UTTAR PRADESH,Shahjahanpur,Powayan,palhanapur,Palhanapur,87498,NATHUAPUR,4/15/2021,27.99939766,79.93357436,Wheat-Irri,Uttar Pradesh,Shahjahanpur,Powayan,Palhanapur,UP_VILL_645725,GP_Available,3398.283684,0.568068743,0.335246146,0.517032385,0.469679415,0.300714344,0.290827125,14.92820072,8.54043293,2.526125669,4.418366909,30.7447567,21.7896862
63393,UTTAR PRADESH,Shahjahanpur,Powayan,Tera,Katia Bujurg,87517,TERA,4/15/2021,27.96798851,79.91728781,Wheat-Irri,Uttar Pradesh,Shahjahanpur,Powayan,Tera,UP_VILL_645730,GP_Available,2772.666933,0.619302273,0.355573326,0.442413568,0.427303016,0.358671755,0.344893456,14.91352463,8.526749611,2.081210613,3.66461587,30.75586128,21.79263306
63269,UTTAR PRADESH,Shahjahanpur,Powayan,katiya bujurg,Katia Bujurg,87264,KHAMARIA GADIYANA,4/14/2021,27.97655896,79.9149206,Wheat-Irri,Uttar Pradesh,Shahjahanpur,Powayan,Karnapur,UP_VILL_645731,GP_Available,2217.717854,0.57850194,0.320744485,0.45985055,0.430790037,0.345823675,0.294262916,14.91512299,8.528167725,2.303381681,4.036345482,30.75065422,21.79016685
63270,UTTAR PRADESH,Shahjahanpur,Powayan,imliya hamidnagar,Imalia Hamidnagar,87408,BHTIURA BAHLOLPUR,4/14/2021,27.9899508,79.90574875,Wheat-Irri,Uttar Pradesh,Shahjahanpur,Powayan,Dilawarpur,UP_VILL_645732,GP_Available,3279.811409,0.496628374,0.290310532,0.385439008,0.392086983,0.328338981,0.322560847,14.91191673,8.524971962,2.625912189,4.572028637,30.74324417,21.7853775
63408,UTTAR PRADESH,Shahjahanpur,Powayan,karmaiya pur,karmaiya pur,87483,KATIA BUJURG,4/15/2021,27.97504647,79.93280116,Wheat-Irri,Uttar Pradesh,Shahjahanpur,Powayan,Katia Bujurg,UP_VILL_645733,GP_Available,1808.261043,0.609980702,0.288863808,0.505147994,0.447943985,0.33917594,0.345883459,14.92445755,8.537192345,2.123541832,3.741971254,30.75495338,21.79501152
63407,UTTAR PRADESH,Shahjahanpur,Powayan,katiya bujurg,Katia Bujurg,87483,KATIA BUJURG,04-15-2021,27.98708143,79.92604995,Wheat-Irri,Uttar Pradesh,Shahjahanpur,Powayan,Katia Bujurg,UP_VILL_645733,GP_Available,3518.834421,0.478880584,0.318627983,0.452933073,0.436228126,0.357721716,0.250719965,14.921525,8.534198761,2.42519331,4.244122028,30.74765205,21.79002571
63395,UTTAR PRADESH,Shahjahanpur,Powayan,katiya bujurg,katiya bhujurg,87483,KATIA BUJURG,4/15/2021,27.99005977,79.92017422,Wheat-Irri,Uttar Pradesh,Shahjahanpur,Powayan,Katia Bujurg,UP_VILL_645733,GP_Available,2473.368553,0.67391187,0.332019776,0.46249634,0.428907126,0.330298096,0.30344826,14.92325974,8.535717964,2.636924744,4.599085808,30.7424984,21.78746033
63394,UTTAR PRADESH,Shahjahanpur,Powayan,katiya bujurg,Katia Bujurg,87483,KATIA BUJURG,4/15/2021,27.97699753,79.91882778,Wheat-Irri,Uttar Pradesh,Shahjahanpur,Powayan,Katia Bujurg,UP_VILL_645733,GP_Available,3169.652978,0.61587429,0.341899216,0.549304903,0.498437166,0.327695221,0.30875504,14.91512299,8.528167725,2.303381681,4.036345482,30.75065422,21.79016685
63575,UTTAR PRADESH,Shahjahanpur,Jalalabad,roopapur,Roopapur,269306,PITAARMAU,4/17/2021,27.72827993,79.61943691,Wheat-Irri,Uttar Pradesh,Shahjahanpur,Jalalabad,Dulramai,UP_VILL_646087,GP_Available,1958.949463,0.56280297,0.166313305,0.714805067,0.586596847,0.335293114,0.226631582,14.84043694,8.350657463,14.68989658,8.389367104,30.89977074,21.8516674
63330,UTTAR PRADESH,Shahjahanpur,Jalalabad,sikandarpur sujawal,Sujawalpur,87112,SIKENDERPUR AFGANAN,4/15/2021,27.73837863,79.66580082,Wheat-Irri,Uttar Pradesh,Shahjahanpur,Jalalabad,Sujawalpur,UP_VILL_646094,GP_Available,2230.18862,0.528785646,0.191563755,0.57964772,0.50980866,0.360261202,0.315356046,14.84531307,8.390162468,13.40591431,7.34815979,30.8776722,21.81662941
63470,UTTAR PRADESH,Shahjahanpur,Jalalabad,gularia,Gularia,87081,GULARIA,4/16/2021,27.70946501,79.68893785,Wheat-Irri,Uttar Pradesh,Shahjahanpur,Jalalabad,Gularia,UP_VILL_646109,GP_Available,2832.942301,0.587847531,0.165383607,0.713107049,0.576291859,0.357393324,0.2710419,14.88011551,8.443927765,14.45688248,6.221532345,30.87807655,21.8765564
63329,UTTAR PRADESH,Shahjahanpur,Jalalabad,gularia,Gularia,87081,GULARIA,4/15/2021,27.73957104,79.68051231,Wheat-Irri,Uttar Pradesh,Shahjahanpur,Jalalabad,Gularia,UP_VILL_646109,GP_Available,1832.163344,0.52345264,0.158229321,0.663432777,0.552291214,0.350364417,0.295802623,14.85081863,8.410422325,12.83729172,6.65920639,30.87126541,21.81219864
63328,UTTAR PRADESH,Shahjahanpur,Jalalabad,gularia,Gularia,87081,GULARIA,4/15/2021,27.73916381,79.68950706,Wheat-Irri,Uttar Pradesh,Shahjahanpur,Jalalabad,Gularia,UP_VILL_646109,GP_Available,3071.965312,0.574495673,0.197726741,0.643221796,0.53898567,0.340330184,0.200370848,14.85081863,8.410422325,12.83729172,6.65920639,30.87126541,21.81219864
63468,UTTAR PRADESH,Shahjahanpur,Jalalabad,sikandarpur,Sikanderpur Kaysthan,87112,SIKENDERPUR AFGANAN,4/16/2021,27.71930678,79.66908625,Wheat-Irri,Uttar Pradesh,Shahjahanpur,Jalalabad,Sikenderpur Afgnan,UP_VILL_646112,GP_Available,2325.797824,0.640784025,0.190078214,0.414359212,0.392882794,0.345416486,0.327635169,14.86434174,8.412485123,14.48784351,7.02751255,30.88438988,21.86096764
63608,UTTAR PRADESH,Shahjahanpur,Jalalabad,khuda bhaksh,Nagaria Buzurg,269343,NAGARIA BUZURG,4/17/2021,27.7173713,79.66034231,Wheat-Irri,Uttar Pradesh,Shahjahanpur,Jalalabad,Nagaria Buzurg,UP_VILL_646113,GP_Available,1529.747273,0.581156909,0.200979486,0.588878632,0.489238441,0.369201869,0.289465636,14.86434174,8.412485123,14.48784351,7.02751255,30.88438988,21.86096764
63563,UTTAR PRADESH,Shahjahanpur,Jalalabad,gunara Jalalabad,Gunara,87082,GUNARA,4/17/2021,27.72209836,79.64642067,Wheat-Irri,Uttar Pradesh,Shahjahanpur,Jalalabad,Gunara,UP_VILL_646115,GP_Available,2068.068664,0.601636827,0.36192283,0.474318326,0.427868545,0.334062517,0.320830703,14.8490715,8.381056786,14.51660252,7.86235714,30.88852692,21.84394455
63605,UTTAR PRADESH,Shahjahanpur,Jalalabad,rauli bouri,Rauli Bouri,87108,RAULI BOURI,4/17/2021,27.69683924,79.65587585,Wheat-Irri,Uttar Pradesh,Shahjahanpur,Jalalabad,Rauli Bouri,UP_VILL_646117,GP_Available,1665.886467,0.535195827,0.12695846,0.6210289,0.538561881,0.327046186,0.256476015,14.88011551,8.424664497,15.856287,7.022477627,30.89648819,21.90895462
63596,UTTAR PRADESH,Shahjahanpur,Jalalabad,elamnagar katriya,elamnagar katriya,242748,NOORPUR KARHI,4/17/2021,27.71077019,79.62964067,Wheat-Irri,Uttar Pradesh,Shahjahanpur,Jalalabad,Noorpur Karhi,UP_VILL_646118,GP_Available,1427.902686,0.515504897,0.296549767,0.357876301,0.356159657,0.369085282,0.334949166,14.85232735,8.371937752,15.62949371,8.347689629,30.90155792,21.87269592
63491,UTTAR PRADESH,Shahjahanpur,Jalalabad,alhadadpur baihari,Alhadadpur Baihari,242403,ALHADADPUR BAIHARI,4/16/2021,27.68448761,79.62744987,Wheat-Irri,Uttar Pradesh,Shahjahanpur,Jalalabad,Alhadadpur Baihari,UP_VILL_646119,GP_Available,1501.68805,0.562034488,0.225930572,0.611814857,0.541110814,0.352481008,0.312979668,14.87936306,8.405382156,17.25899506,7.780126572,30.91816711,21.94350433
63487,UTTAR PRADESH,Shahjahanpur,Jalalabad,bajehra mahua dari,Bajhera Mahua Dari,242404,KOLA,4/16/2021,27.69162979,79.6358671,Wheat-Irri,Uttar Pradesh,Shahjahanpur,Jalalabad,Kola,UP_VILL_646120,GP_Available,1673.16108,0.533793271,0.147484705,0.667171419,0.569391429,0.343439609,0.224885643,14.87360573,8.404377937,16.42931366,7.653702259,30.90724945,21.91625214
63516,UTTAR PRADESH,Shahjahanpur,Jalalabad,pahadpur jhundi nagla,pahadpur jhundi nagla,242971,DOSHPUR NAGAR,4/16/2021,27.61207661,79.58983573,Wheat-Irri,Uttar Pradesh,Shahjahanpur,Jalalabad,Doshpur Nagar,UP_VILL_646171,GP_Available,1232.527355,0.591531217,0.239663437,0.554685473,0.508495331,0.339689225,0.311045945,14.9254055,8.442731857,16.54571533,5.520002842,30.99585915,22.1347847
63515,UTTAR PRADESH,Shahjahanpur,Jalalabad,ban gaon,Ban Gaon,87293,VANGAON,4/16/2021,27.62620826,79.58934427,Wheat-Irri,Uttar Pradesh,Shahjahanpur,Jalalabad,Ban Gaon,UP_VILL_646183,GP_Available,2033.774058,0.625430167,0.322201729,0.537193358,0.474307895,0.340427607,0.303039372,14.91689587,8.43159771,17.23512077,5.590628147,30.98814583,22.10974693
63514,UTTAR PRADESH,Shahjahanpur,Jalalabad,saraiyan,saraiyan,87327,SINGAHA YOOSUFPUR,4/16/2021,27.63697579,79.58848524,Wheat-Irri,Uttar Pradesh,Shahjahanpur,Jalalabad,Singha Yusufpur,UP_VILL_646184,GP_Available,1634.709552,0.566477478,0.092075877,0.622279108,0.555533648,0.344649553,0.261961192,14.90838623,8.420463562,16.86166954,5.826249123,30.98043251,22.08471107
63492,UTTAR PRADESH,Shahjahanpur,Jalalabad,bighapur sithauli,Bighapur Sithauli,242965,BIGHAAPUR SITHAULI,4/16/2021,27.67654405,79.60620668,Wheat-Irri,Uttar Pradesh,Shahjahanpur,Jalalabad,Bighapur Sithauli,UP_VILL_646193,GP_Available,2076.382508,0.592489541,0.349458903,0.500864029,0.458593071,0.327513337,0.269438595,14.88136196,8.39622879,16.58501434,7.17983532,30.93664169,21.97583771
63595,UTTAR PRADESH,Shahjahanpur,Jalalabad,katkiya,Katkiya,87079,AELAM NAGAR,4/17/2021,27.7162005,79.63289417,Wheat-Irri,Uttar Pradesh,Shahjahanpur,Jalalabad,Katkiya,UP_VILL_646198,GP_Available,1645.101857,0.539803386,0.231288642,0.475520223,0.434767216,0.322820753,0.314109296,14.85533047,8.38207531,15.34408092,8.017645836,30.89726639,21.86976433
63599,UTTAR PRADESH,Shahjahanpur,Jalalabad,elam Nagar katriya,elam Nagar katriya,87299,CHITRAU,4/17/2021,27.70789053,79.62448268,Wheat-Irri,Uttar Pradesh,Shahjahanpur,Jalalabad,Milkiya Shahmat,UP_VILL_646199,GP_Available,1469.471905,0.59326756,0.262847424,0.435504526,0.412601918,0.354356557,0.279497236,14.86133862,8.383086205,16.17266083,8.158502579,30.90709496,21.89629745
63585,UTTAR PRADESH,Shahjahanpur,Jalalabad,pitaarmau,pitaarmau,269306,PITAARMAU,4/17/2021,27.7208976,79.63913648,Wheat-Irri,Uttar Pradesh,Shahjahanpur,Jalalabad,Peetar Mau,UP_VILL_646205,GP_Available,1688.749537,0.620924294,0.229401514,0.599338293,0.505304515,0.33010453,0.323931396,14.84619331,8.370923996,14.80146408,8.199617386,30.89227486,21.84651947
63584,UTTAR PRADESH,Shahjahanpur,Jalalabad,pitaarmau roopapur,pitaarmau roopapur,269306,PITAARMAU,4/17/2021,27.72175907,79.63311148,Wheat-Irri,Uttar Pradesh,Shahjahanpur,Jalalabad,Peetar Mau,UP_VILL_646205,GP_Available,1435.177299,0.611004293,0.36649695,0.343420833,0.333181918,0.306164354,0.295168847,14.84619331,8.370923996,14.80146408,8.199617386,30.89227486,21.84651947
63565,UTTAR PRADESH,Shahjahanpur,Jalalabad,dibiyapur,Dibiyapur,269353,RUSTAMPUR CHAK,4/17/2021,27.72912526,79.64067081,Wheat-Irri,Uttar Pradesh,Shahjahanpur,Jalalabad,Rustampur Chak,UP_VILL_646207,GP_Available,1477.785749,0.580328286,0.373543948,0.596049905,0.507858694,0.329915345,0.330699414,14.8490715,8.381056786,14.51660252,7.86235714,30.88852692,21.84394455
63567,UTTAR PRADESH,Shahjahanpur,Jalalabad,Hamirpur chakrena,Hamirpur Chakrena,242401,RUPAPUR,4/17/2021,27.73634571,79.62459629,Wheat-Irri,Uttar Pradesh,Shahjahanpur,Jalalabad,Haar Chapri,UP_VILL_646209,GP_Available,2138.736337,0.565013349,0.098224804,0.705871999,0.581232607,0.358856648,0.232832655,14.83430386,8.349642754,14.54315853,8.726065636,30.89048576,21.82549095
63365,UTTAR PRADESH,Shahjahanpur,Jalalabad,Sarai sandhau,Sarai Sandhau,242406,SARAI SADHOO,4/15/2021,27.73326078,79.65140464,Wheat-Irri,Uttar Pradesh,Shahjahanpur,Jalalabad,Sarai Sandhau,UP_VILL_646210,GP_Available,1886.203329,0.55118078,0.265002459,0.461818635,0.413534045,0.315470934,0.311562866,14.84256077,8.380032539,13.6902256,7.692636013,30.88087463,21.81884384
63348,UTTAR PRADESH,Shahjahanpur,Jalalabad,Sarai sandhau,Sarai Sandhau,242406,SARAI SADHOO,4/15/2021,27.7423135,79.64459883,Wheat-Irri,Uttar Pradesh,Shahjahanpur,Jalalabad,Sarai Sandhau,UP_VILL_646210,GP_Available,2623.017743,0.553068638,0.444829732,0.369775891,0.355609506,0.351532787,0.340870559,14.83054543,8.358747482,13.43247032,8.211868286,30.87963104,21.7981739
63568,UTTAR PRADESH,Shahjahanpur,Jalalabad,haar guraiya,Haar Guraiya,87084,HAAR GURAIYA,4/17/2021,27.7450378,79.61393933,Wheat-Irri,Uttar Pradesh,Shahjahanpur,Jalalabad,Haar Guraiya,UP_VILL_646214,GP_Available,1791.633355,0.56225878,0.120978542,0.686551511,0.577782154,0.370149583,0.299032867,14.82266521,8.328368187,13.6884203,8.790958405,30.88760948,21.80374527
63570,UTTAR PRADESH,Shahjahanpur,Jalalabad,haar guraiya kodri,haar guraiya kodri,87069,CHAK CHANDAR SEN,4/17/2021,27.74455573,79.60635011,Wheat-Irri,Uttar Pradesh,Shahjahanpur,Jalalabad,Kundri T. Khandhar,UP_VILL_646216,GP_Available,1484.021132,0.56051141,0.079917379,0.74142307,0.598962843,0.34457776,0.231441617,14.82003784,8.318242073,13.37685013,8.666664124,30.89026833,21.80560112
63576,UTTAR PRADESH,Shahjahanpur,Jalalabad,tikhola dulramai,Tikhola T. Dulramai,87114,TIKHOLA TA. DULRAMAI,4/17/2021,27.73242114,79.61188615,Wheat-Irri,Uttar Pradesh,Shahjahanpur,Jalalabad,Tikhola T. Dulramai,UP_VILL_646219,GP_Available,1393.60808,0.568822324,0.152814046,0.576822639,0.498033077,0.292034477,0.341929913,14.8315506,8.339512825,14.18915844,8.590163231,30.89369011,21.82770538
63573,UTTAR PRADESH,Shahjahanpur,Jalalabad,haar guraiya,Haar Guraiya,87114,TIKHOLA TA. DULRAMAI,4/17/2021,27.7376363,79.61498674,Wheat-Irri,Uttar Pradesh,Shahjahanpur,Jalalabad,Tikhola T. Dulramai,UP_VILL_646219,GP_Available,2159.520947,0.438391656,0.131977931,0.537394762,0.49085024,0.350850672,0.319731236,14.8315506,8.339512825,14.18915844,8.590163231,30.89369011,21.82770538
63372,UTTAR PRADESH,Shahjahanpur,Jalalabad,katakiya,Katkiya,87093,KATKA,4/15/2021,27.74511408,79.63859525,Wheat-Irri,Uttar Pradesh,Shahjahanpur,Jalalabad,Katkiya,UP_VILL_646236,GP_Available,2388.151653,0.558658302,0.285453826,0.319140732,0.321036488,0.334828556,0.327572793,14.82791805,8.348621368,13.71623135,8.563560486,30.88228989,21.80002975
63359,UTTAR PRADESH,Shahjahanpur,Jalalabad,dolapur aka khera,Aka Khera,87076,DOLAPUR,4/15/2021,27.75455262,79.64418301,Wheat-Irri,Uttar Pradesh,Shahjahanpur,Jalalabad,Aka Khera,UP_VILL_646238,GP_Available,2726.940791,0.562548,0.215485,0.562866986,0.487260252,0.304689437,0.316709697,14.8253355,8.353542328,12.8904047,8.386623383,30.87399292,21.78565788
63331,UTTAR PRADESH,Shahjahanpur,Jalalabad,sujawalpur bhagha,Sujawalpur,242405,MALOOPUR,4/15/2021,27.7469129,79.65818576,Wheat-Irri,Uttar Pradesh,Shahjahanpur,Jalalabad,Malhupur,UP_VILL_646239,GP_Available,1657.572623,0.554759324,0.165009603,0.611579239,0.526410401,0.359195858,0.317485482,14.83317184,8.36887455,13.14871025,7.86017561,30.8769722,21.79631615
63362,UTTAR PRADESH,Shahjahanpur,Jalalabad,hareba,Hareba,87085,HAREBA,4/15/2021,27.76525372,79.63791032,Wheat-Irri,Uttar Pradesh,Shahjahanpur,Jalalabad,Hareba,UP_VILL_646243,GP_Available,2284.228605,0.608427823,0.105994754,0.668428719,0.560637832,0.314691812,0.249738112,14.82154465,8.344305038,12.63099766,8.927504539,30.86944389,21.78500366
63373,UTTAR PRADESH,Shahjahanpur,Jalalabad,bhuriabhoor,Bhuriabhoor,87068,BHUDIABHOOD,4/15/2021,27.77271696,79.63003548,Wheat-Irri,Uttar Pradesh,Shahjahanpur,Jalalabad,Bhuriabhoor,UP_VILL_646249,GP_Available,1923.615627,0.574429989,0.174697086,0.659444153,0.548617482,0.354217499,0.29588446,14.82034111,8.345145226,12.08838081,9.109476089,30.86254311,21.78273201
63388,UTTAR PRADESH,Shahjahanpur,Jalalabad,paidapur,Paidapur,242138,DIURA,4/15/2021,27.80096864,79.61804716,Wheat-Irri,Uttar Pradesh,Shahjahanpur,Jalalabad,Paidapur,UP_VILL_646255,GP_Available,1597.297255,0.54301697,0.046255521,0.694922805,0.56894362,0.362382799,0.134112254,14.81107712,8.328464508,10.68399143,9.995734215,30.84584618,21.77791023
63379,UTTAR PRADESH,Shahjahanpur,Jalalabad,paidapur,Paidapur,242138,DIURA,4/15/2021,27.79794231,79.6223705,Wheat-Irri,Uttar Pradesh,Shahjahanpur,Jalalabad,Paidapur,UP_VILL_646255,GP_Available,1519.354968,0.593649566,0.146595165,0.66485095,0.551726937,0.334455878,0.225868598,14.81515503,8.337129593,11.28415489,9.86119175,30.85081482,21.77931023
63499,UTTAR PRADESH,Shahjahanpur,Jalalabad,zarinpur,Zarinpur,87303,JARIAN PUR,4/16/2021,27.66371113,79.58411122,Wheat-Irri,Uttar Pradesh,Shahjahanpur,Jalalabad,Zarinpur,UP_VILL_646276,GP_Available,1630.55263,0.569451213,0.329686046,0.314677447,0.313055098,0.343852311,0.234177694,14.88285828,8.387061119,15.74131584,6.533110619,30.95729256,22.0096035
63498,UTTAR PRADESH,Shahjahanpur,Jalalabad,tarapur pahrua khurd,Tarapur paharua khurd,87303,JARIAN PUR,4/16/2021,27.66660851,79.57381195,Wheat-Irri,Uttar Pradesh,Shahjahanpur,Jalalabad,Zarinpur,UP_VILL_646276,GP_Available,1967.263307,0.546556652,0.195571989,0.703803539,0.608967781,0.346864164,0.233782753,14.87922668,8.376907349,15.090312,6.315950394,30.96430588,22.014328
63495,UTTAR PRADESH,Shahjahanpur,Jalalabad,hariharpur,hariharpur,87303,JARIAN PUR,4/16/2021,27.67479498,79.57385021,Wheat-Irri,Uttar Pradesh,Shahjahanpur,Jalalabad,Zarinpur,UP_VILL_646276,GP_Available,2064.950973,0.564752042,0.167400375,0.60849756,0.532299161,0.351656288,0.302152872,14.87084293,8.365777016,14.7592907,6.563179493,30.95604897,21.98893356
63493,UTTAR PRADESH,Shahjahanpur,Jalalabad,Zarinpur,Zarinpur,87303,JARIAN PUR,4/16/2021,27.67031194,79.58539276,Wheat-Irri,Uttar Pradesh,Shahjahanpur,Jalalabad,Zarinpur,UP_VILL_646276,GP_Available,2864.119215,0.536236465,0.165848404,0.5479303,0.499121845,0.351311445,0.321628869,14.87434959,8.375926971,15.36786461,6.768731117,30.94957924,21.98456764
63513,UTTAR PRADESH,Shahjahanpur,Jalalabad,sikandarpur kaysthan,Sikanderpur Kaysthan,87324,SARAY TA. BAANGAON,4/16/2021,27.64309048,79.58441559,Wheat-Irri,Uttar Pradesh,Shahjahanpur,Jalalabad,Sarai Ta. Bangaon,UP_VILL_646277,GP_Available,1751.103366,0.546894372,0.177085072,0.728354931,0.619514346,0.352986366,0.310244024,14.89987755,8.409329414,16.48821831,6.061869621,30.97271919,22.05967522
63512,UTTAR PRADESH,Shahjahanpur,Jalalabad,zarinpur rasulabad,zarinpur rasulabad,87326,SIKANDERPUR KAYASTHAN,4/16/2021,27.65410138,79.58203633,Wheat-Irri,Uttar Pradesh,Shahjahanpur,Jalalabad,Sikanderpur Kaysthan,UP_VILL_646278,GP_Available,2016.10714,0.55087924,0.102002874,0.700081229,0.593654037,0.358601362,0.308567554,14.89136791,8.398195267,16.11476707,6.29749012,30.96500587,22.03463936
63494,UTTAR PRADESH,Shahjahanpur,Jalalabad,Mirzapur,Mirzapur,87317,MOHAMMADPUR GULDIYA,4/16/2021,27.66639582,79.56431936,Wheat-Irri,Uttar Pradesh,Shahjahanpur,Jalalabad,Mohamadpur Guleriya,UP_VILL_646279,GP_Available,1641.984166,0.582189322,0.172089785,0.724598646,0.615169287,0.359933674,0.300916284,14.87559509,8.366753578,14.43930912,6.098790646,30.9713192,22.0190506
63377,UTTAR PRADESH,Shahjahanpur,Jalalabad,kakrala,Kakrala,87090,KAKRALA,4/15/2021,27.79055392,79.62044718,Wheat-Irri,Uttar Pradesh,Shahjahanpur,Jalalabad,Kakrala,UP_VILL_646511,GP_Available,1754.221058,0.505587697,0.185994327,0.680062234,0.563919246,0.332035154,0.276535094,14.81515503,8.337129593,11.28415489,9.86119175,30.85081482,21.77931023
63051,UTTAR PRADESH,Shahjahanpur,Shahjahanpur,painabujurg,Paina Bujurg,86931,PAINA BUJURG,4/13/2021,27.9469384,79.94705549,Wheat-Irri,Uttar Pradesh,Shahjahanpur,Shahjahanpur,Aadampur,UP_VILL_646633,GP_Available,2708.234643,0.607746661,0.342277765,0.450142801,0.441705704,0.332756341,0.207508355,14.92310143,8.536538124,1.461064458,2.630488873,30.77223587,21.80571747
63268,UTTAR PRADESH,Shahjahanpur,Shahjahanpur,tera,tera,86931,PAINA BUJURG,4/14/2021,27.95988964,79.9177517,Wheat-Irri,Uttar Pradesh,Shahjahanpur,Shahjahanpur,Paina Bujurg,UP_VILL_646634,GP_Available,1969.341768,0.490186423,0.452164888,0.389109671,0.380718559,0.344391644,0.327674091,14.91192627,8.525332451,1.859039545,3.292886019,30.76106644,21.79509735
63050,UTTAR PRADESH,Shahjahanpur,Shahjahanpur,painabujurg,Paina Bujurg,86931,PAINA BUJURG,4/13/2021,27.93490199,79.94080731,Wheat-Irri,Uttar Pradesh,Shahjahanpur,Shahjahanpur,Paina Bujurg,UP_VILL_646634,GP_Available,2835.020762,0.544192016,0.532215714,0.259890139,0.277733743,0.344035387,0.322975576,14.92109394,8.534816742,1.270212054,2.309057236,30.77728081,21.80847931
63262,UTTAR PRADESH,Shahjahanpur,Shahjahanpur,rosan Nagar,Roshanpur,271048,JALALNAGAR CHUNGI VAHAR URF SAHAMATGANJ GAUTIYA,4/14/2021,27.93043204,79.89901948,Wheat-Irri,Uttar Pradesh,Shahjahanpur,Shahjahanpur,Satwan Bujurg,UP_VILL_646711,GP_Available,2737.333096,0.536522806,0.257463336,0.642865777,0.539649963,0.334748834,0.281738639,14.90048695,8.514284134,1.511021137,2.709672928,30.76761246,21.79439735
63261,UTTAR PRADESH,Shahjahanpur,Shahjahanpur,satwan,Satwan Bujurg,271048,JALALNAGAR CHUNGI VAHAR URF SAHAMATGANJ GAUTIYA,4/14/2021,27.92263402,79.90153045,Wheat-Irri,Uttar Pradesh,Shahjahanpur,Shahjahanpur,Satwan Bujurg,UP_VILL_646711,GP_Available,2257.208612,0.634761393,0.343378514,0.474462122,0.429269642,0.33550337,0.313745201,14.90314674,8.517074585,1.23024869,2.241054058,30.77480507,21.79957962
63263,UTTAR PRADESH,Shahjahanpur,Shahjahanpur,satawan kurd,Satwan Khurd,86941,SATVA KHURD,04-14-2021,27.94039148,79.89964556,Wheat-Irri,Uttar Pradesh,Shahjahanpur,Shahjahanpur,Satwan Khurd,UP_VILL_646712,GP_Available,2955.571498,0.55904907,0.387912512,0.49360159,0.452190131,0.330883682,0.277888626,14.90181255,8.515499115,1.754071236,3.114934683,30.76229858,21.79212761
63392,UTTAR PRADESH,Shahjahanpur,Shahjahanpur,daulatpur,Husainpur Daulatpur,86901,DAULATPUR,04-15-2021,27.94377286,79.91125377,Wheat-Irri,Uttar Pradesh,Shahjahanpur,Shahjahanpur,Daulatpur,UP_VILL_646713,GP_Available,2891.139208,0.57049346,0.3874228,0.253766745,0.273589611,0.321742773,0.346690863,14.91032791,8.523914337,1.636868596,2.921156406,30.7662735,21.79756355
63267,UTTAR PRADESH,Shahjahanpur,Shahjahanpur,sahmatgang,Rasoolpur Chathia,86920,KAJIPUR,4/14/2021,27.95935286,79.90948616,Wheat-Irri,Uttar Pradesh,Shahjahanpur,Shahjahanpur,Kazipur,UP_VILL_646714,GP_Available,2916.08074,0.583949983,0.48194325,0.452343822,0.419770807,0.330156446,0.316741735,14.90753174,8.521022797,1.928080559,3.406541348,30.75902557,21.79247856
63266,UTTAR PRADESH,Shahjahanpur,Shahjahanpur,rasoolpur chathiya,Rasoolpur Chathia,268087,MADHWAMAI,04-14-2021,27.95628939,79.90617627,Wheat-Irri,Uttar Pradesh,Shahjahanpur,Shahjahanpur,Rasoolpur Chathia,UP_VILL_646715,GP_Available,2787.21616,0.659079134,0.44557479,0.635236681,0.544789016,0.352932841,0.310137421,14.90753174,8.521022797,1.928080559,3.406541348,30.75902557,21.79247856
63265,UTTAR PRADESH,Shahjahanpur,Shahjahanpur,rasulpur chatiya,Rasoolpur Chathia,268087,MADHWAMAI,4/14/2021,27.95310191,79.90125514,Wheat-Irri,Uttar Pradesh,Shahjahanpur,Shahjahanpur,Rasoolpur Chathia,UP_VILL_646715,GP_Available,2604.311594,0.622347236,0.451464057,0.337387085,0.332622826,0.306268096,0.31979093,14.90753174,8.521022797,1.928080559,3.406541348,30.75902557,21.79247856
63171,UTTAR PRADESH,Shahjahanpur,Shahjahanpur,kapsenda,Kapsenda,86971,GHUS VARI,4/14/2021,27.93273721,79.79300395,Wheat-Irri,Uttar Pradesh,Shahjahanpur,Shahjahanpur,Ghus Vari,UP_VILL_646729,GP_Available,2598.076211,0.553405702,0.155059353,0.54171592,0.476305485,0.304083139,0.296517462,14.85927296,8.473219872,2.806794405,5.352666855,30.74827576,21.76623154
63832,UTTAR PRADESH,Shahjahanpur,Shahjahanpur,sarauri,Sarauri,87003,SARAURA,4/19/2021,27.78709287,79.89672531,Wheat-Irri,Uttar Pradesh,Shahjahanpur,Shahjahanpur,Sarauri,UP_VILL_646756,GP_Available,1794.751047,0.600889444,0.374531806,0.493837714,0.446235001,0.328702837,0.261290669,14.88060856,8.496062279,4.439011097,0.208230302,30.84732246,21.82842827
63170,UTTAR PRADESH,Shahjahanpur,Shahjahanpur,shahjahanpur,Mauzampur,268213,BHEDPUR,4/14/2021,27.86310368,79.87659737,Wheat-Irri,Uttar Pradesh,Shahjahanpur,Shahjahanpur,Azizganj,UP_VILL_646801,GP_Available,2305.013215,0.655474365,0.371172309,0.647255182,0.548965633,0.345755726,0.280741215,14.88487911,8.498988152,0.553170264,0.22837089,30.80169678,21.80326653
63186,UTTAR PRADESH,Shahjahanpur,Shahjahanpur,mauzampur,Mauzampur,86991,MAUZAMPUR,4/14/2021,27.85911127,79.8620384,Wheat-Irri,Uttar Pradesh,Shahjahanpur,Shahjahanpur,Mauzampur,UP_VILL_646802,GP_Available,1909.0664,0.588871241,0.259899676,0.551451862,0.488711715,0.350130349,0.305439562,14.88079834,8.494681358,1.360274196,0.650654256,30.80561638,21.80173302
63176,UTTAR PRADESH,Shahjahanpur,Shahjahanpur,mauzampur,Mauzampur,86991,MAUZAMPUR,4/14/2021,27.86403339,79.86086902,Wheat-Irri,Uttar Pradesh,Shahjahanpur,Shahjahanpur,Mauzampur,UP_VILL_646802,GP_Available,2448.427022,0.545492172,0.229133993,0.534757078,0.490486562,0.370512724,0.274543375,14.88171387,8.495592117,0.830322742,0.666656315,30.80014038,21.79976082
63200,UTTAR PRADESH,Shahjahanpur,Shahjahanpur,gulam khera,Gulam Khera,86974,GULAM KHEDA,4/14/2021,27.86927168,79.85127181,Wheat-Irri,Uttar Pradesh,Shahjahanpur,Shahjahanpur,Gulam Khera,UP_VILL_646804,GP_Available,2477.525475,0.559930801,0.248761773,0.654516697,0.546223283,0.376519442,0.299821079,14.87854767,8.492195129,1.107475281,1.104941726,30.79858398,21.79625511
63202,UTTAR PRADESH,Shahjahanpur,Shahjahanpur,akhtiyar Nagar eknaura,Akhtiyar Nagar Urf Eknaur,86954,AKHTIYAR NAGAR URF EKNAURA,4/14/2021,27.87013133,79.82460729,Wheat-Irri,Uttar Pradesh,Shahjahanpur,Shahjahanpur,Akhtiyar Nagar Urf Eknaura,UP_VILL_646805,GP_Available,1666.925697,0.550275862,0.179189131,0.553612769,0.48307538,0.316530615,0.279125154,14.86942005,8.48251152,1.406778693,2.464664221,30.78822517,21.7841568
63218,UTTAR PRADESH,Shahjahanpur,Shahjahanpur,khanpur haqimpur,Khanpur Haqimpur,86996,PARVEJPUR,4/14/2021,27.88796538,79.8283077,Wheat-Irri,Uttar Pradesh,Shahjahanpur,Shahjahanpur,Parwaijpur,UP_VILL_646808,GP_Available,2004.675605,0.516438007,0.286587358,0.405821592,0.390089214,0.325606704,0.32760489,14.86979008,8.483016014,1.565149069,2.790826321,30.78253365,21.78257751
63222,UTTAR PRADESH,Shahjahanpur,Shahjahanpur,sarovar Nagar bhuraandi,Bhursandi,86961,BHURSANDI,4/14/2021,27.8944845,79.82408141,Wheat-Irri,Uttar Pradesh,Shahjahanpur,Shahjahanpur,Bhursandi,UP_VILL_646809,GP_Available,1673.16108,0.549442232,0.261966258,0.565142095,0.498084933,0.338542104,0.336440891,14.87015915,8.483520508,1.723519325,3.11698842,30.77684212,21.78099823
63227,UTTAR PRADESH,Shahjahanpur,Shahjahanpur,dhaka udhranpur,Dhakaurdharanpur,86981,KALYANPUR TA.CHAMRAURA,4/14/2021,27.90213672,79.81646356,Wheat-Irri,Uttar Pradesh,Shahjahanpur,Shahjahanpur,Dhakaurdharanpur,UP_VILL_646810,GP_Available,2726.940791,0.663906574,0.282389134,0.498963654,0.446155965,0.323939949,0.334401786,14.86681747,8.480222702,2.095156193,3.821073055,30.76937866,21.77630806
63237,UTTAR PRADESH,Shahjahanpur,Shahjahanpur,kalyanpur banthara,Banthara,86981,KALYANPUR TA.CHAMRAURA,4/14/2021,27.92258595,79.80837685,Wheat-Irri,Uttar Pradesh,Shahjahanpur,Shahjahanpur,Kalyanpur Ta.Chamraura,UP_VILL_646811,GP_Available,2442.191639,0.639814079,0.337200642,0.336135596,0.330421478,0.349045724,0.295921564,14.86329842,8.477024078,2.54071641,4.761214256,30.75600815,21.77043152
63228,UTTAR PRADESH,Shahjahanpur,Shahjahanpur,kalyanpur banthara,Banthara,86981,KALYANPUR TA.CHAMRAURA,4/14/2021,27.91425192,79.81321364,Wheat-Irri,Uttar Pradesh,Shahjahanpur,Shahjahanpur,Kalyanpur Ta.Chamraura,UP_VILL_646811,GP_Available,1939.204084,0.508126915,0.36062929,0.476988882,0.430921674,0.351486146,0.345098972,14.86705017,8.480626106,2.232414722,4.124708652,30.76363373,21.77482605
63174,UTTAR PRADESH,Shahjahanpur,Shahjahanpur,Roshanpur,Roshanpur,86975,HARNAUKHA,4/14/2021,27.92714381,79.78461566,Wheat-Irri,Uttar Pradesh,Shahjahanpur,Shahjahanpur,Khiriya Udait,UP_VILL_646825,GP_Available,1592.101102,0.524559617,0.232879907,0.353063166,0.347964406,0.333679557,0.330391109,14.85532856,8.469014168,2.882802248,5.426953793,30.75224876,21.76460075
63165,UTTAR PRADESH,Shahjahanpur,Shahjahanpur,Kapsenda,Kapsenda,86983,KAPSEDA,4/14/2021,27.93499067,79.80008922,Wheat-Irri,Uttar Pradesh,Shahjahanpur,Shahjahanpur,Kapsenda,UP_VILL_646826,GP_Available,2313.327059,0.575337827,0.257786065,0.360593975,0.337983876,0.336223423,0.346551597,14.86339474,8.477326393,2.656863213,5.042323589,30.75020981,21.76904869
63201,UTTAR PRADESH,Shahjahanpur,Tilhar,gopalpur,Gopalpur Jadeed,242087,MAHIYAWAR,4/14/2021,27.89627614,79.74815012,Wheat-Irri,Uttar Pradesh,Shahjahanpur,Shahjahanpur,Ganeshpur,UP_VILL_646836,GP_Available,2864.119215,0.607250154,0.263534963,0.513272643,0.465918839,0.326191962,0.234808147,14.84171677,8.451394081,3.59854579,6.320579052,30.76464272,21.75685883
63838,UTTAR PRADESH,Shahjahanpur,Shahjahanpur,Chandpur Barkatpur,Chandapur Barkatpur,86962,CHANDAPUR BARKATPUR,4/19/2021,27.77710463,79.89148362,Wheat-Irri,Uttar Pradesh,Shahjahanpur,Shahjahanpur,Chandapur Barkatpur,UP_VILL_646871,GP_Available,1739.671831,0.632552147,0.395698756,0.537200212,0.483350813,0.341885448,0.33583051,14.87928295,8.494848251,4.926376343,0.200466722,30.85263634,21.83069611
63173,UTTAR PRADESH,Shahjahanpur,Shahjahanpur,bhudiya,Bhudia,87191,UMRAHA,4/14/2021,27.76433667,79.78689333,Wheat-Irri,Uttar Pradesh,Shahjahanpur,Shahjahanpur,Umraha,UP_VILL_646971,GP_Available,2332.033207,0.554956973,0.261832654,0.59465611,0.517995834,0.361853361,0.315377504,14.85815525,8.467432022,8.39111042,3.435633421,30.8467598,21.78356934
63164,UTTAR PRADESH,Shahjahanpur,Shahjahanpur,Baverpur,Baberpur,87192,VIKRAMPUR,4/14/2021,27.78347167,79.78456833,Wheat-Irri,Uttar Pradesh,Shahjahanpur,Shahjahanpur,Khijerpur,UP_VILL_646974,GP_Available,3013.768405,0.540658712,0.295435816,0.640531778,0.536807656,0.331952214,0.273139477,14.85780144,8.467630386,7.322397232,3.583094835,30.83494568,21.7811985
63160,UTTAR PRADESH,Shahjahanpur,Shahjahanpur,kant,Kant,87192,VIKRAMPUR,4/14/2021,27.79553833,79.77525,Wheat-Irri,Uttar Pradesh,Shahjahanpur,Shahjahanpur,Vikrampur,UP_VILL_646975,GP_Available,3082.357617,0.595062554,0.332711577,0.523549199,0.484337389,0.358802676,0.324461818,14.85541534,8.465043068,7.069047451,4.044598103,30.82785988,21.77581596
63066,UTTAR PRADESH,Shahjahanpur,Shahjahanpur,hatipur,Hatipur Kurria,242390,HATHI PUR KURRIYA,4/13/2021,27.81616833,79.75024333,Wheat-Irri,Uttar Pradesh,Shahjahanpur,Shahjahanpur,Hatipur Kurria,UP_VILL_647051,GP_Available,2483.760858,0.544200361,0.040953141,0.715466917,0.584704161,0.334579051,0.258324414,14.849823,8.459259033,6.559044361,5.010901928,30.81336403,21.76564598
63231,UTTAR PRADESH,Shahjahanpur,Shahjahanpur,kant,Kant,87193,YARPUR,4/14/2021,27.81569167,79.78060833,Wheat-Irri,Uttar Pradesh,Shahjahanpur,Shahjahanpur,Kant,UP_VILL_647054,GP_Available,2307.091676,0.561299741,0.322390914,0.621716559,0.528392792,0.340824902,0.227342218,14.85727215,8.467926979,5.719326496,3.804286718,30.8172245,21.7776413
63312,UTTAR PRADESH,Shahjahanpur,Shahjahanpur,dilawarpur,Dilawarpur Elaque Shahgan,242381,DILAWAR PUR,4/15/2021,27.818975,79.75909667,Wheat-Irri,Uttar Pradesh,Shahjahanpur,Shahjahanpur,Dilawarpur,UP_VILL_647056,GP_Available,2672.900806,0.5577268,0.12765184,0.595584095,0.518443584,0.338324845,0.159772351,14.849823,8.459259033,6.559044361,5.010901928,30.81336403,21.76564598
63226,UTTAR PRADESH,Shahjahanpur,Shahjahanpur,kattupur,Kattupur,242381,DILAWAR PUR,4/14/2021,27.81468167,79.77194,Wheat-Irri,Uttar Pradesh,Shahjahanpur,Shahjahanpur,Dilawarpur,UP_VILL_647056,GP_Available,2712.391565,0.57428205,0.165047839,0.556389987,0.492169827,0.343779147,0.242771193,14.85478878,8.465037346,5.999232769,4.20649147,30.81593895,21.77364349
62990,UTTAR PRADESH,Shahjahanpur,Shahjahanpur,dilawarpur,Dilawerpur Bhatkar,242381,DILAWAR PUR,4/13/2021,27.81149667,79.76039667,Wheat-Irri,Uttar Pradesh,Shahjahanpur,Shahjahanpur,Dilawarpur,UP_VILL_647056,GP_Available,2338.26859,0.581663609,0.101417713,0.491315395,0.447569311,0.356471181,0.311540663,14.85230637,8.462148666,6.279138565,4.608696938,30.81465149,21.76964378
63155,UTTAR PRADESH,Shahjahanpur,Shahjahanpur,sikandarpur,Sikanderpur Khurd,242383,SIKANDAR PUR KHURD,4/14/2021,27.800825,79.76480833,Wheat-Irri,Uttar Pradesh,Shahjahanpur,Shahjahanpur,Sikanderpur Khurd,UP_VILL_647058,GP_Available,2454.662404,0.561382651,0.118322715,0.682456613,0.566002965,0.339769959,0.244296014,14.85275555,8.462252617,6.814596653,4.520534039,30.82066536,21.7706337
63185,UTTAR PRADESH,Shahjahanpur,Shahjahanpur,rawatpur,Rawatpur Elaqua Saheramau,87192,VIKRAMPUR,4/14/2021,27.79850333,79.79008,Wheat-Irri,Uttar Pradesh,Shahjahanpur,Shahjahanpur,Talwipur,UP_VILL_647062,GP_Available,2462.976248,0.628001869,0.498613149,0.453276157,0.412553281,0.371617168,0.348488301,14.85983467,8.470415115,6.507033348,3.269052505,30.83021736,21.78420639
63187,UTTAR PRADESH,Shahjahanpur,Tilhar,Dharmpur Kanja,Dharampur Kanja,87539,DHARAMPUR KANJA,4/14/2021,27.90505577,79.76433201,Wheat-Irri,Uttar Pradesh,Shahjahanpur,Tilhar,Dharampur Kanja,UP_VILL_647146,GP_Available,2350.739356,0.562677324,0.168197438,0.487955838,0.444781184,0.357545346,0.341211081,14.84825802,8.461212158,3.161488771,5.710685253,30.76051903,21.76074791
63181,UTTAR PRADESH,Shahjahanpur,Tilhar,Naugai,Naugai,87544,HARBHANPUR,4/14/2021,27.91290571,79.77531669,Wheat-Irri,Uttar Pradesh,Shahjahanpur,Tilhar,Mittarpur Barua,UP_VILL_647148,GP_Available,2835.020762,0.605355263,0.19494471,0.50053668,0.456285328,0.334549695,0.32117036,14.85165691,8.465011597,3.001033783,5.546293259,30.75633049,21.76277351
63280,UTTAR PRADESH,Shahjahanpur,Tilhar,Firozpur,Patti Firozpur,269549,FIROZPUR,4/14/2021,27.94278877,79.77750162,Wheat-Irri,Uttar Pradesh,Shahjahanpur,Tilhar,Khijrabad Urf Kachhiyanikhera,UP_VILL_647158,GP_Available,2124.18711,0.594870985,0.197952569,0.496766835,0.44144699,0.34234786,0.163740084,14.85071754,8.465003967,3.159468174,6.186884403,30.73844719,21.75951195
63219,UTTAR PRADESH,Shahjahanpur,Tilhar,firozpur,Patti Firozpur,269514,GURGIYA BAHDURPUR,4/14/2021,27.95375319,79.77744328,Wheat-Irri,Uttar Pradesh,Shahjahanpur,Tilhar,Dhakia Shobha,UP_VILL_647161,GP_Available,2334.111668,0.560652018,0.24625878,0.429522932,0.406288743,0.324592829,0.32502225,14.85040379,8.46500206,3.212279558,6.400414944,30.73248672,21.75842476
63282,UTTAR PRADESH,Shahjahanpur,Tilhar,Rudarpur,Rudarpur,269507,MOHANPUR,4/14/2021,27.95712743,79.79552951,Wheat-Irri,Uttar Pradesh,Shahjahanpur,Tilhar,Mohanpur,UP_VILL_647162,GP_Available,2309.170137,0.520535588,0.242989659,0.32281664,0.328433514,0.371043086,0.320353389,14.85919285,8.473620415,2.996864319,5.869832993,30.73657036,21.76366425
63281,UTTAR PRADESH,Shahjahanpur,Tilhar,mohenpur,Mohenpur Parsela,269507,MOHANPUR,4/14/2021,27.96255363,79.80191113,Wheat-Irri,Uttar Pradesh,Shahjahanpur,Tilhar,Mohanpur,UP_VILL_647162,GP_Available,2361.131661,0.562152982,0.224406287,0.440855443,0.417631775,0.356087685,0.329033524,14.8636837,8.47823143,3.005303621,5.885651588,30.73281288,21.76490021
63279,UTTAR PRADESH,Shahjahanpur,Tilhar,Biharipur,Biharipur,87243,RAMPUR NAWADIA,4/14/2021,27.96936733,79.7965007,Wheat-Irri,Uttar Pradesh,Shahjahanpur,Tilhar,Rampur Navediya,UP_VILL_647164,GP_Available,2327.876285,0.627522886,0.221567512,0.461061627,0.420960724,0.324044764,0.322621971,14.85915279,8.473820686,3.091899395,6.128416061,30.73071671,21.7623806
63221,UTTAR PRADESH,Shahjahanpur,Tilhar,Bhiharipur Bhundiya,Biharipur Bhundiya,87531,BIHARIPUR MUDIYA,4/14/2021,27.96290645,79.78796949,Wheat-Irri,Uttar Pradesh,Shahjahanpur,Tilhar,Biharipur Bhundiya,UP_VILL_647165,GP_Available,2602.233133,0.535269976,0.194678485,0.332490712,0.332189858,0.323615104,0.267729223,14.85462189,8.469409943,3.178495169,6.371180534,30.72862053,21.75985909
63314,UTTAR PRADESH,Shahjahanpur,Tilhar,Tilhar,Tilhar (NPP),242755,BHUDELI,4/15/2021,27.97177213,79.72617182,Wheat-Irri,Uttar Pradesh,Shahjahanpur,Tilhar,Mansoorpur,UP_VILL_647189,GP_Available,2201.090166,0.440396518,0.178356543,0.404310435,0.372400433,0.338265598,0.275582403,14.82901382,8.433765411,3.645323038,7.928666115,30.71722221,21.74739838
63316,UTTAR PRADESH,Shahjahanpur,Tilhar,Dhanela,Dhanela,87568,SARELI,4/15/2021,27.97667325,79.7127579,Wheat-Irri,Uttar Pradesh,Shahjahanpur,Tilhar,Mustafabad Urf Bhureli,UP_VILL_647191,GP_Available,2302.934754,0.574302733,0.271664232,0.28589052,0.280643821,0.342172235,0.309576482,14.82537556,8.425785065,3.710807085,8.148903847,30.71803474,21.74627876
63382,UTTAR PRADESH,Shahjahanpur,Tilhar,Mahmoodpur,Nizampur Urf Mahmoodpur,87047,MARUA JHALA,4/15/2021,27.99844631,79.75348788,Wheat-Irri,Uttar Pradesh,Shahjahanpur,Tilhar,Mahmoodpur,UP_VILL_647394,GP_Available,2313.327059,0.570256233,0.249729544,0.345117301,0.330284387,0.341337025,0.310801595,14.83927059,8.455561638,3.47004652,7.604907036,30.70413017,21.74962616
63381,UTTAR PRADESH,Shahjahanpur,Tilhar,Sandhana,Samdhana,87566,SAMDHANA,4/15/2021,28.01670843,79.74263226,Wheat-Irri,Uttar Pradesh,Shahjahanpur,Tilhar,Samdhana,UP_VILL_647405,GP_Available,2203.168627,0.56377089,0.180503607,0.599662185,0.501715183,0.36407423,0.236111298,14.8335762,8.44889164,3.472259283,8.071995735,30.69107628,21.74602318
63321,UTTAR PRADESH,Shahjahanpur,Tilhar,Sherpur,Sherpur Urf Shergarh,87528,BATLAIYA,4/15/2021,27.98498871,79.70420411,Wheat-Irri,Uttar Pradesh,Shahjahanpur,Tilhar,Batlaiya Mai Chack,UP_VILL_647421,GP_Available,2284.228605,0.547543168,0.23565641,0.231642097,0.238890275,0.323579967,0.302599132,14.82086849,8.417978287,3.68132019,8.424988747,30.71243668,21.74375916
63344,UTTAR PRADESH,Shahjahanpur,Tilhar,Sherpur,Sherpur Urf Shergarh,87570,SULTANPUR,4/15/2021,27.97848359,79.69559363,Wheat-Irri,Uttar Pradesh,Shahjahanpur,Tilhar,Sultanpur,UP_VILL_647423,GP_Available,2699.920799,0.596821547,0.154483452,0.388718814,0.357142419,0.337844312,0.293946505,14.81809998,8.409825325,3.841775417,8.589380264,30.7196579,21.74404144
63345,UTTAR PRADESH,Shahjahanpur,Tilhar,Kamlapur,Kamalpur Urf Bakhtawar Ga,87570,SULTANPUR,4/15/2021,27.97334657,79.68556353,Wheat-Irri,Uttar Pradesh,Shahjahanpur,Tilhar,Kamalpur,UP_VILL_647424,GP_Available,2793.451542,0.583866954,0.14836514,0.543384552,0.479005873,0.344018847,0.319202483,14.81446171,8.401844978,3.907259464,8.80961895,30.72047043,21.74292183
63383,UTTAR PRADESH,Shahjahanpur,Tilhar,Husain pur Kabara,Husenpur Kabara,87548,ISMAILPUR NAWADA,4/15/2021,28.02120822,79.71896557,Wheat-Irri,Uttar Pradesh,Shahjahanpur,Tilhar,Alampur,UP_VILL_647432,GP_Available,2735.254635,0.584302902,0.274511665,0.556913435,0.485598803,0.31849274,0.260927796,14.82126808,8.426172256,3.34151125,8.540765762,30.6863308,21.73990059
63387,UTTAR PRADESH,Shahjahanpur,Tilhar,Bhusauri,Bhusauri,87567,SANTOSHPUR,4/15/2021,28.02981496,79.73731265,Wheat-Irri,Uttar Pradesh,Shahjahanpur,Tilhar,Jauhana,UP_VILL_647435,GP_Available,2415.171646,0.540534019,0.17921482,0.502036035,0.454761416,0.343241721,0.313343495,14.82902145,8.441179276,3.421660662,8.32555294,30.68540764,21.74337959
63384,UTTAR PRADESH,Shahjahanpur,Tilhar,Husainpur Kabara,Husenpur Kabara,242765,HASNAPUR,4/15/2021,28.03068611,79.72296718,Wheat-Irri,Uttar Pradesh,Shahjahanpur,Tilhar,Husenpur,UP_VILL_647436,GP_Available,1947.517928,0.56516391,0.298817068,0.588399529,0.510829628,0.340827048,0.299356014,14.82437038,8.4336586,3.328838587,8.534058571,30.67959976,21.74048805
63380,UTTAR PRADESH,Shahjahanpur,Tilhar,Husainpur Kabra,Husenpur Kabara,242765,HASNAPUR,4/15/2021,28.03617632,79.72705455,Wheat-Irri,Uttar Pradesh,Shahjahanpur,Tilhar,Husenpur,UP_VILL_647436,GP_Available,1463.236522,0.536637425,0.200864062,0.246120244,0.260746837,0.343951672,0.30058369,14.82437038,8.4336586,3.328838587,8.534058571,30.67959976,21.74048805
63490,UTTAR PRADESH,Shahjahanpur,Tilhar,Akbari,Akabari,87231,MIYUNA,4/16/2021,28.12441739,79.70786576,Wheat-Irri,Uttar Pradesh,Shahjahanpur,Tilhar,Miyuna,UP_VILL_647581,GP_Available,2562.742375,0.568048954,0.08567404,0.642289519,0.544567525,0.354588747,0.231865838,14.8086977,8.420395851,2.351726532,9.206832886,30.62268829,21.72415733
63497,UTTAR PRADESH,Shahjahanpur,Tilhar,Makrandpur,Makrandpur,87192,VIKRAMPUR,4/16/2021,28.10554326,79.7126236,Wheat-Irri,Uttar Pradesh,Shahjahanpur,Tilhar,Vikrampur,UP_VILL_647609,GP_Available,1961.027924,0.575884044,0.220279649,0.44411397,0.411151499,0.340325028,0.298038781,14.81469536,8.426792145,2.750637531,9.167744637,30.63560677,21.72969246
63496,UTTAR PRADESH,Shahjahanpur,Tilhar,Makrandpur,Makrandpur,87044,MAKRANDPUR,4/16/2021,28.09619924,79.71180217,Wheat-Irri,Uttar Pradesh,Shahjahanpur,Tilhar,Makrandpur,UP_VILL_647610,GP_Available,2313.327059,0.619147301,0.152667716,0.567820728,0.49635309,0.338324964,0.203123003,14.81551647,8.426714897,2.824496746,9.089372635,30.64194679,21.73096848
63489,UTTAR PRADESH,Shahjahanpur,Tilhar,Paliya Darowast,Paliya Darowast,87196,ALIYAPUR,4/16/2021,28.08637877,79.71161507,Wheat-Irri,Uttar Pradesh,Shahjahanpur,Tilhar,Nagla Braham,UP_VILL_647627,GP_Available,1964.145616,0.509428442,0.146587104,0.616663516,0.524084449,0.36300981,0.31205979,14.81633854,8.426636696,2.898355961,9.011000633,30.64828873,21.73224449
63488,UTTAR PRADESH,Shahjahanpur,Tilhar,Paliya,Paliya Darowast,87237,PALIYA DAROVAST,4/16/2021,28.08077599,79.71233933,Wheat-Irri,Uttar Pradesh,Shahjahanpur,Tilhar,Paliya Darowast,UP_VILL_647628,GP_Available,2074.304047,0.596799493,0.162305355,0.586200655,0.499953002,0.348347217,0.314543009,14.81633854,8.426636696,2.898355961,9.011000633,30.64828873,21.73224449
63386,UTTAR PRADESH,Shahjahanpur,Tilhar,ukari,Okhari,87249,UKHRI,4/15/2021,28.05588179,79.73781891,Wheat-Irri,Uttar Pradesh,Shahjahanpur,Tilhar,Okhari,UP_VILL_647636,GP_Available,2984.669952,0.563155353,0.133880734,0.656866491,0.539855182,0.352009922,0.239815712,14.82684326,8.440839767,3.326753855,8.695828438,30.66680527,21.74029922
63385,UTTAR PRADESH,Shahjahanpur,Tilhar,Piree,Piree,87240,PIPRI,4/15/2021,28.04595131,79.73651902,Wheat-Irri,Uttar Pradesh,Shahjahanpur,Tilhar,Pipari,UP_VILL_647639,GP_Available,2377.759349,0.540377319,0.172951415,0.316691339,0.3073484,0.363136441,0.325193167,14.82756901,8.440953255,3.358389378,8.572402954,30.67300606,21.74132538
63360,UTTAR PRADESH,Shahjahanpur,Tilhar,Khajuria Khurd,Khajuria Khurd,87388,UN KALAN,4/15/2021,28.03825689,79.69443217,Wheat-Irri,Uttar Pradesh,Shahjahanpur,Tilhar,Khajuriya,UP_VILL_647669,GP_Available,3182.123744,0.47313112,0.213539615,0.389407247,0.365144789,0.353051841,0.281512439,14.81259727,8.41143322,3.145278692,8.789299011,30.68077469,21.73489571
63511,UTTAR PRADESH,Shahjahanpur,Tilhar,bhuriya,Bhuria,87218,KAPOOR NAGLA,4/16/2021,28.08719825,79.67531106,Wheat-Irri,Uttar Pradesh,Shahjahanpur,Tilhar,Kapoor Nagla,UP_VILL_647672,GP_Available,3161.339134,0.580589116,0.107871786,0.518782377,0.452950954,0.340843409,0.27674216,14.79968548,8.398910522,2.231374264,8.900794029,30.64845657,21.72230148
63346,UTTAR PRADESH,Shahjahanpur,Tilhar,Raipur,Simaria Raipur,87563,RAMAPUR,4/15/2021,28.01083075,79.64998899,Wheat-Irri,Uttar Pradesh,Shahjahanpur,Tilhar,Rampur,UP_VILL_647677,GP_Available,2068.068664,0.5410375,0.074547917,0.69127655,0.573453009,0.344575435,0.205512434,14.79528713,8.37290287,3.282629251,9.373323441,30.69639587,21.72986412
63509,UTTAR PRADESH,Shahjahanpur,Tilhar,bhojpur,Shahpur Khitaoa,242767,BHOJPUR,4/16/2021,28.06736825,79.66492659,Wheat-Irri,Uttar Pradesh,Shahjahanpur,Tilhar,Bhojpur,UP_VILL_647680,GP_Available,2706.156182,0.488359749,0.095807858,0.502871156,0.456441581,0.351093471,0.286853701,14.79764366,8.390870094,2.423464775,8.941761017,30.66187859,21.72360992
63510,UTTAR PRADESH,Shahjahanpur,Tilhar,bhojpur,Shahpur Khitaoa,242767,BHOJPUR,4/16/2021,28.07150091,79.66186335,Wheat-Irri,Uttar Pradesh,Shahjahanpur,Tilhar,Kusak,UP_VILL_647681,GP_Available,1734.475679,0.54771173,0.064061433,0.579345047,0.499123454,0.364594519,0.317539513,14.79658318,8.391424179,2.244046688,8.907502174,30.65518761,21.72171211
63508,UTTAR PRADESH,Shahjahanpur,Tilhar,kasrak,Kasrak,87219,KASRAK,4/16/2021,28.05671749,79.65738809,Wheat-Irri,Uttar Pradesh,Shahjahanpur,Tilhar,Kasrak,UP_VILL_647682,GP_Available,2631.331587,0.636716247,0.153319836,0.532969117,0.457088053,0.350415528,0.292980224,14.79468346,8.383098602,2.499472857,9.016047478,30.66882133,21.72339439
63507,UTTAR PRADESH,Shahjahanpur,Tilhar,bilash nagla,Kesi Nagla,87219,KASRAK,4/16/2021,28.0597287,79.6536163,Wheat-Irri,Uttar Pradesh,Shahjahanpur,Tilhar,Kasrak,UP_VILL_647682,GP_Available,2234.345542,0.563314199,0.133352116,0.532206059,0.45059374,0.343265593,0.278143436,14.79468346,8.383098602,2.499472857,9.016047478,30.66882133,21.72339439
63506,UTTAR PRADESH,Shahjahanpur,Tilhar,shalpur newadiya,Shalpur Navdia,87246,SHALPUR NAVDIA,4/16/2021,28.04801459,79.64306238,Wheat-Irri,Uttar Pradesh,Shahjahanpur,Tilhar,Shalpur Navdia,UP_VILL_647683,GP_Available,2970.120725,0.586966991,0.097778238,0.684383988,0.553084314,0.348107249,0.30067721,14.79181957,8.375136375,2.617704391,9.135387421,30.67590332,21.72342682
63505,UTTAR PRADESH,Shahjahanpur,Tilhar,shalpur newadiya,Shalpur Navdia,87246,SHALPUR NAVDIA,4/16/2021,28.04661048,79.65154011,Wheat-Irri,Uttar Pradesh,Shahjahanpur,Tilhar,Shalpur Navdia,UP_VILL_647683,GP_Available,2257.208612,0.557122827,0.141066432,0.586526394,0.510449708,0.370208651,0.218781739,14.79579163,8.38244915,2.70000267,9.072833061,30.67558289,21.72541428
63398,UTTAR PRADESH,Shahjahanpur,Powayan,gairatpur,Gairatpur,87471,DILAVARPUR,4/15/2021,28.051408,79.95769527,Wheat-Irri,Uttar Pradesh,Shahjahanpur,Powayan,Gairatpur,UP_VILL_647773,GP_Available,3053.259164,0.566767871,0.329628557,0.501090229,0.465852231,0.298128575,0.278512359,14.95094872,8.560804367,3.387004852,5.884922981,30.71932602,21.77697945
63058,UTTAR PRADESH,Shahjahanpur,Powayan,simra,Simara,270121,SAKULIA,4/13/2021,28.04306284,80.04178894,Wheat-Irri,Uttar Pradesh,Shahjahanpur,Powayan,Sakulia,UP_VILL_647785,GP_Available,2213.560932,0.625230789,0.29644978,0.49721244,0.465127647,0.379627913,0.190896869,14.99941349,8.605981827,1.739620924,3.19931531,30.74705505,21.79543877
63057,UTTAR PRADESH,Shahjahanpur,Powayan,baragaon,Bara Urf Salnaha,270121,SAKULIA,4/13/2021,28.04292438,80.0377591,Wheat-Irri,Uttar Pradesh,Shahjahanpur,Powayan,Sakulia,UP_VILL_647785,GP_Available,2772.666933,0.552439034,0.263819277,0.524073958,0.49499929,0.326187015,0.293473154,14.99378967,8.600759506,1.902617693,3.463864326,30.74452972,21.79370499
63056,UTTAR PRADESH,Shahjahanpur,Powayan,Deoria kalyanpur,Deoria Kalyanpur,270121,SAKULIA,4/13/2021,28.04024266,80.02779893,Wheat-Irri,Uttar Pradesh,Shahjahanpur,Powayan,Sakulia,UP_VILL_647785,GP_Available,2697.842338,0.545082748,0.196092129,0.573166966,0.511557937,0.306486368,0.261270583,14.98816681,8.595537186,2.065614462,3.728413582,30.74200249,21.79197121
63061,UTTAR PRADESH,Shahjahanpur,Powayan,baderibhikh,Baderi Bheekh,269761,VEERAMPUR,4/13/2021,28.05233851,80.06059892,Wheat-Irri,Uttar Pradesh,Shahjahanpur,Powayan,Baderi Bheekh,UP_VILL_647786,GP_Available,2677.057728,0.554622352,0.361123294,0.561701238,0.510131717,0.330245554,0.312830478,15.01430607,8.619365692,1.479205251,2.790456772,30.74771118,21.79496193
63059,UTTAR PRADESH,Shahjahanpur,Powayan,bilaiya,Bilaiya,269783,BILAIYA,4/13/2021,28.04421615,80.04533106,Wheat-Irri,Uttar Pradesh,Shahjahanpur,Powayan,Bilaiya,UP_VILL_647788,GP_Available,3011.689944,0.57474339,0.284769505,0.480060339,0.462254941,0.313647151,0.340779871,14.99941349,8.605981827,1.739620924,3.19931531,30.74705505,21.79543877
63277,UTTAR PRADESH,Shahjahanpur,Powayan,rakhiya bujurg,Rakhia Bujurg,87507,RAKHIYA BUZURG,4/14/2021,28.02555972,79.92601996,Wheat-Irri,Uttar Pradesh,Shahjahanpur,Powayan,Rakhia Bujurg,UP_VILL_647819,GP_Available,2429.720873,0.539254665,0.464566052,0.520033062,0.470253915,0.31624946,0.325380474,14.92846489,8.540275574,3.272119284,5.663977146,30.72704124,21.77976799
63276,UTTAR PRADESH,Shahjahanpur,Powayan,gargaiya,Gargaiya,87507,RAKHIYA BUZURG,4/14/2021,28.01966845,79.92979127,Wheat-Irri,Uttar Pradesh,Shahjahanpur,Powayan,Rakhia Bujurg,UP_VILL_647819,GP_Available,2870.354598,0.65860039,0.426323563,0.363982528,0.360216469,0.297343999,0.311536044,14.9267292,8.538756371,3.06038785,5.309013367,30.7321949,21.78233147
63275,UTTAR PRADESH,Shahjahanpur,Powayan,rakhiya Bujurg,Rakhia Khurd,87507,RAKHIYA BUZURG,4/14/2021,28.01536913,79.92395482,Wheat-Irri,Uttar Pradesh,Shahjahanpur,Powayan,Rakhia Bujurg,UP_VILL_647819,GP_Available,2566.899297,0.529804647,0.349900723,0.288635284,0.295826256,0.328834265,0.329157323,14.9267292,8.538756371,3.06038785,5.309013367,30.7321949,21.78233147
63396,UTTAR PRADESH,Shahjahanpur,Powayan,bilantpur gaddipur,Bilandpur Gaddipur,87465,BILANDPUR GADDIPUR,4/15/2021,28.04365916,79.95101147,Wheat-Irri,Uttar Pradesh,Shahjahanpur,Powayan,Bilandpur Gaddipur,UP_VILL_647822,GP_Available,2080.53943,0.561984122,0.318732947,0.5689255,0.506499171,0.341745973,0.320548654,14.9488039,8.558980942,3.206592083,5.580257416,30.72431755,21.77983856
63278,UTTAR PRADESH,Shahjahanpur,Powayan,miyapur,Miyanpur J. Bilandpur,242951,AKHTYARPUR MIYAPUR,4/14/2021,28.03385971,79.93207181,Wheat-Irri,Uttar Pradesh,Shahjahanpur,Powayan,Akhtyarpur Miyapur,UP_VILL_647823,GP_Available,2305.013215,0.58162272,0.357308954,0.50390029,0.451873094,0.316688269,0.307339251,14.93568611,8.546915054,3.331293583,5.771157742,30.72436333,21.77903557
63397,UTTAR PRADESH,Shahjahanpur,Powayan,marauri,Marauri J. Ladhola,87471,DILAVARPUR,4/15/2021,28.05153898,79.94694731,Wheat-Irri,Uttar Pradesh,Shahjahanpur,Powayan,Marauri J. Ladhola,UP_VILL_647844,GP_Available,3171.731439,0.591540098,0.231626332,0.59063679,0.519093513,0.306046844,0.352814794,14.94518852,8.555480003,3.560441256,6.166238308,30.71674538,21.77534485
63060,UTTAR PRADESH,Shahjahanpur,Powayan,bashkiraun,Bans Kirayun,269783,BILAIYA,4/13/2021,28.05631834,80.043661,Wheat-Irri,Uttar Pradesh,Shahjahanpur,Powayan,Bans Kirayun,UP_VILL_647853,GP_Available,2523.251616,0.549829245,0.2070214,0.643903434,0.559189916,0.340973616,0.234312937,15.00278664,8.608717918,1.826077938,3.353086948,30.7425499,21.79169273
63065,UTTAR PRADESH,Shahjahanpur,Powayan,sadapur,Saidapur Davchat,87397,BADRIPUR HADIRA,4/13/2021,28.06384668,80.04850807,Wheat-Irri,Uttar Pradesh,Shahjahanpur,Powayan,Anantpur,UP_VILL_647854,GP_Available,2519.094695,0.552488863,0.356007248,0.293865502,0.298822939,0.346193284,0.297142267,15.00615978,8.611454964,1.912534952,3.506858826,30.73804474,21.7879467
63064,UTTAR PRADESH,Shahjahanpur,Powayan,Sadapur,Baskhera J. Pipariya,87445,SADA PUR,4/13/2021,28.07129798,80.05860707,Wheat-Irri,Uttar Pradesh,Shahjahanpur,Powayan,Sadapur,UP_VILL_647856,GP_Available,3967.78199,0.636479855,0.455687433,0.316635668,0.320278168,0.323435009,0.34728238,15.01556587,8.619717598,1.804676533,3.345783472,30.73622704,21.7856369
63062,UTTAR PRADESH,Shahjahanpur,Powayan,Beerampur,Dhimar Pura,87445,SADA PUR,4/13/2021,28.06111219,80.06255334,Wheat-Irri,Uttar Pradesh,Shahjahanpur,Powayan,Sadapur,UP_VILL_647856,GP_Available,2882.825364,0.561319351,0.378034592,0.363249213,0.362737775,0.344509423,0.3117823,15.01795197,8.622304916,1.544783235,2.910696507,30.74331284,21.79101753
63063,UTTAR PRADESH,Shahjahanpur,Powayan,Samulia,Samulia,87422,JATHIAPUR BUZURG,4/13/2021,28.06618241,80.06916302,Wheat-Irri,Uttar Pradesh,Shahjahanpur,Powayan,Jathiapur Buzurg,UP_VILL_648245,GP_Available,1886.203329,0.566156387,0.317193389,0.514981866,0.481286198,0.320642114,0.338087738,15.01795197,8.622304916,1.544783235,2.910696507,30.74331284,21.79101753
63404,UTTAR PRADESH,Shahjahanpur,Powayan,kakrauwa Mamura,Kakrauwa Ja. Mura,87475,GARGAIYA,4/15/2021,28.01542306,79.93923076,Wheat-Irri,Uttar Pradesh,Shahjahanpur,Powayan,Moraa J. Fattepur,UP_VILL_648341,GP_Available,3288.125253,0.535531223,0.548850417,0.432493001,0.418184012,0.365119845,0.307710141,14.93194294,8.543674469,2.928709507,5.094762325,30.73456001,21.78436089
63400,UTTAR PRADESH,Shahjahanpur,Powayan,manwawari,manwabhahri,242952,MANUAVARI MUJAFFARPUR,4/15/2021,28.03639273,79.97786336,Wheat-Irri,Uttar Pradesh,Shahjahanpur,Powayan,Manuwawari,UP_VILL_648343,GP_Available,2783.059238,0.566774011,0.307937145,0.681080937,0.580880404,0.332300603,0.299748123,14.95763302,8.567399025,2.721064568,4.780025482,30.73425293,21.78636169
63402,UTTAR PRADESH,Shahjahanpur,Powayan,muzaffarpur,Gola Raipur,242952,MANUAVARI MUJAFFARPUR,4/15/2021,28.0379279,79.96350668,Wheat-Irri,Uttar Pradesh,Shahjahanpur,Powayan,Mujaffarpur,UP_VILL_648344,GP_Available,3200.829892,0.554300547,0.38526693,0.485546172,0.458872527,0.343854517,0.301795512,14.95214653,8.562277794,2.873621941,5.027808666,30.73178101,21.78453064
63401,UTTAR PRADESH,Shahjahanpur,Powayan,muzzarfapur,Gola Raipur,242952,MANUAVARI MUJAFFARPUR,4/15/2021,28.0354423,79.96946475,Wheat-Irri,Uttar Pradesh,Shahjahanpur,Powayan,Mujaffarpur,UP_VILL_648344,GP_Available,2945.179193,0.548617482,0.318104446,0.453336388,0.425549269,0.31845057,0.337910861,14.95214653,8.562277794,2.873621941,5.027808666,30.73178101,21.78453064
63399,UTTAR PRADESH,Shahjahanpur,Powayan,baazpur,Bazpur J. Jathapura,242952,MANUAVARI MUJAFFARPUR,4/15/2021,28.04241663,79.96648747,Wheat-Irri,Uttar Pradesh,Shahjahanpur,Powayan,Mujaffarpur,UP_VILL_648344,GP_Available,2783.059238,0.481674016,0.368771166,0.405949265,0.41324392,0.334215254,0.349870145,14.95442677,8.564203262,3.043595076,5.31570816,30.72684288,21.78157234
63274,UTTAR PRADESH,Shahjahanpur,Powayan,pachdeura,pachdeura,87507,RAKHIYA BUZURG,4/14/2021,28.01802324,79.9121996,Wheat-Irri,Uttar Pradesh,Shahjahanpur,Powayan,Ram Sagar,UP_VILL_648346,GP_Available,2025.460214,0.56604296,0.277266204,0.518159509,0.473152131,0.362415254,0.307415962,14.92151642,8.533838272,3.192065954,5.523264408,30.72982979,21.78030396
63273,UTTAR PRADESH,Shahjahanpur,Powayan,bhaderi bhekh,Baderi Bheekh,87507,RAKHIYA BUZURG,4/14/2021,28.01595705,79.90462318,Wheat-Irri,Uttar Pradesh,Shahjahanpur,Powayan,Ram Sagar,UP_VILL_648346,GP_Available,1766.691824,0.512622476,0.292483121,0.375117123,0.374336749,0.314325958,0.316469073,14.91630268,8.528920174,3.323744059,5.737515926,30.72746468,21.77827454
63055,UTTAR PRADESH,Shahjahanpur,Powayan,mahuwa pathak,Mahua Pathak,87432,MAHUA PATHAK,4/13/2021,28.03082924,80.04073879,Wheat-Irri,Uttar Pradesh,Shahjahanpur,Powayan,Mahua Pathak,UP_VILL_648368,GP_Available,2764.353089,0.573115408,0.16967231,0.754012883,0.620560288,0.3803339,0.17972742,14.99603939,8.603245735,1.65316391,3.045543432,30.75156212,21.7991848
63052,UTTAR PRADESH,Shahjahanpur,Powayan,siraili,Sindhauli,87514,SINDHAULI,4/13/2021,27.96444504,79.9682731,Wheat-Irri,Uttar Pradesh,Shahjahanpur,Powayan,Sindhauli,UP_VILL_648429,GP_Available,3040.788398,0.492582947,0.498112798,0.444381475,0.42381832,0.313023478,0.305277258,14.93617916,8.548804283,1.683808446,3.012510061,30.76633644,21.80523682
63054,UTTAR PRADESH,Shahjahanpur,Powayan,rajau,Chak Kanhu,87467,CHAKKANHAU,4/13/2021,27.99725038,80.00942928,Wheat-Irri,Uttar Pradesh,Shahjahanpur,Powayan,Chak Kanhu,UP_VILL_648431,GP_Available,2566.899297,0.546110272,0.206301898,0.648044527,0.5578807,0.324349821,0.263760895,14.96278477,8.573438644,1.75053215,3.153332949,30.76055527,21.80526543
63053,UTTAR PRADESH,Shahjahanpur,Powayan,kadhauChak,Chak Kanhu,87467,CHAKKANHAU,4/13/2021,27.98597894,80.00417154,Wheat-Irri,Uttar Pradesh,Shahjahanpur,Powayan,Chak Kanhu,UP_VILL_648431,GP_Available,2963.885342,0.678422391,0.398320585,0.636898458,0.542711616,0.355007946,0.284247667,14.95995712,8.571108818,1.622317076,2.932497025,30.76527596,21.80861664
63391,UTTAR PRADESH,Shahjahanpur,Shahjahanpur,daulatpur,Husainpur Daulatpur,2337,NA,4/15/2021,27.92833893,79.90931376,Wheat-Irri,Uttar Pradesh,Shahjahanpur,Shahjahanpur,Shahjahanpur (NPP),UP_VILL_653599,Database_Not_Available,2525.330077,0.612365305,0.369245112,0.336477309,0.338602751,0.360068738,0.305194497,14.90314674,8.517074585,1.23024869,2.241054058,30.77480507,21.79957962
63350,UTTAR PRADESH,Shahjahanpur,Tilhar,Khajuria Khurd,Khajuria Khurd,269630,SAIDAPUR,4/15/2021,28.03565438,79.67913667,Wheat-Irri,Uttar Pradesh,Shahjahanpur,Tilhar,Katra,UP_VILL_653798,GP_Available,2300.856293,0.553967416,0.280795366,0.280159503,0.27723363,0.351172566,0.298790604,14.80474854,8.396616936,3.022905588,8.959459305,30.68155861,21.73116493
63347,UTTAR PRADESH,Shahjahanpur,Tilhar,Saidapur,Patti Saidupur,269630,SAIDAPUR,4/15/2021,28.01870431,79.65962483,Wheat-Irri,Uttar Pradesh,Shahjahanpur,Tilhar,Katra,UP_VILL_653798,GP_Available,2506.623929,0.580770552,0.120540641,0.623197734,0.52223444,0.362405419,0.204417452,14.79911518,8.380501747,3.30159235,9.243190765,30.69586372,21.73147964
